,latitude,longitude,city,name,labels,founded_at,closed_at,first_funding_at,last_funding_at,age_first_funding_year,age_last_funding_year,age_first_milestone_year,age_last_milestone_year,relationships,funding_rounds,milestones,is_CA,is_NY,is_MA,is_TX,is_otherstate,category_code,is_software,is_web,is_mobile,is_enterprise,is_advertising,is_gamesvideo,is_ecommerce,is_biotech,is_consulting,is_othercategory,has_VC,has_angel,has_roundA,has_roundB,has_roundC,has_roundD,avg_participants,is_top500,status,closed_at_days_since,funding_total_usd_log,avg_participants_capped,avg_participants_log,relationships_capped,relationships_log
0,42.35888,-71.05682,San Diego,Bandsintown,1,2007-01-01,,2009-04-01,2010-01-01,2.2493,3.0027,4.6685,6.7041,3,3,3,1,0,0,0,0,music,0,0,0,0,0,0,0,0,0,1,0,1,0,0,0,0,1.0,0,1,-1.0,12.834683971615659,1.0,0.6931471805599453,3.0,1.3862943611198906
1,37.238916,-121.973718,Los Gatos,TriCipher,1,2000-01-01,,2005-02-14,2009-12-28,5.126,9.9973,7.0055,7.0055,9,4,1,1,0,0,0,0,enterprise,0,0,0,1,0,0,0,0,0,0,1,0,0,1,1,1,4.75,1,1,-1.0,17.50688691721445,4.75,1.749199854809259,9.0,2.302585092994046
2,32.901049,-117.192656,San Diego,Plixi,1,2009-03-18,,2010-03-30,2010-03-30,1.0329,1.0329,1.4575,2.2055,5,1,2,1,0,0,0,0,web,0,1,0,0,0,0,0,0,0,0,0,0,1,0,0,0,4.0,1,1,-1.0,14.77102238760702,4.0,1.6094379124341003,5.0,1.791759469228055
3,37.320309,-122.05004,Cupertino,Solidcore Systems,1,2002-01-01,,2005-02-17,2007-04-25,3.1315,5.3151,6.0027,6.0027,5,3,1,1,0,0,0,0,software,1,0,0,0,0,0,0,0,0,0,0,0,0,1,1,1,3.3333,1,1,-1.0,17.50439003707821,3.3333,1.4663293764561487,5.0,1.791759469228055
4,37.779281,-122.419236,San Francisco,Inhale Digital,0,2010-08-01,2012-10-01,2010-08-01,2012-04-01,0.0,1.6685,0.0384,0.0384,2,2,1,1,0,0,0,0,games_video,0,0,0,0,0,1,0,0,0,0,1,1,0,0,0,0,1.0,1,0,4475.0,14.077875591662238,1.0,0.6931471805599453,2.0,1.0986122886681096
5,37.406914,-122.09037,Mountain View,Matisse Networks,0,2002-01-01,2009-02-15,2006-07-18,2006-07-18,4.5452,4.5452,5.0027,5.0027,3,1,1,1,0,0,0,0,network_hosting,0,0,0,0,0,0,0,0,0,1,0,0,0,1,0,0,3.0,1,0,5799.0,15.830413711839864,3.0,1.3862943611198906,3.0,1.3862943611198906
6,37.3915589,-122.0702643,Mountain View,RingCube Technologies,1,2005-01-01,,2006-09-21,2010-03-18,1.7205,5.211,3.0,6.6082,6,3,2,1,0,0,0,0,software,1,0,0,0,0,0,0,0,0,0,1,0,1,1,0,0,1.6667,1,1,-1.0,17.073607134447293,1.6667,0.980841752933602,6.0,1.9459101490553132
7,38.057107,-122.513742,San Rafael,ClairMail,1,2004-01-01,,2005-08-24,2010-10-04,1.6466,6.7616,5.6055,7.3616,25,3,3,1,0,0,0,0,finance,0,0,0,0,0,0,0,0,0,1,0,0,1,1,0,1,3.5,1,1,-1.0,17.344807971579257,3.5,1.5040773967762742,25.0,3.258096538021482
8,42.712207,-73.203599,Williamstown,VoodooVox,1,2002-01-01,,2005-08-02,2013-02-08,3.5863,11.1123,8.0055,9.9945,13,3,4,0,0,1,0,0,mobile,0,0,1,0,0,0,0,0,0,0,1,0,1,0,0,1,4.0,1,1,-1.0,16.082468576942105,4.0,1.6094379124341003,13.0,2.639057329615259
9,37.427235,-122.145783,Palo Alto,Doostang,1,2005-06-01,,2007-02-01,2010-02-05,1.6712,4.6849,2.9178,6.1151,14,3,4,1,0,0,0,0,web,0,1,0,0,0,0,0,0,0,0,1,1,1,0,0,0,1.0,1,1,-1.0,15.564710586686562,1.0,0.6931471805599453,14.0,2.70805020110221
10,37.4429885,-122.1624131,Menlo Park,Zong,1,2000-11-15,,2005-07-01,2010-04-26,4.6274,9.4493,10.1342,10.6493,22,3,3,1,0,0,0,0,mobile,0,0,1,0,0,0,0,0,0,0,0,0,1,1,0,0,1.0,1,1,-1.0,17.129696599000436,1.0,0.6931471805599453,22.0,3.1354942159291497
11,37.452992,-122.185098,Menlo Park,Center'd,0,2006-01-01,2011-12-02,2007-02-01,2011-05-03,1.0849,5.3370000000000015,-0.6164,4.6082,8,5,2,1,0,0,0,0,web,0,1,0,0,0,0,0,0,0,0,1,1,1,0,0,0,1.75,1,0,4779.0,16.15731646026544,1.75,1.0116009116784799,8.0,2.1972245773362196
12,38.241467,-85.72451099999998,Louisville,Resonant Vibes,0,2004-01-01,2012-04-27,2008-11-25,2008-11-25,4.9041,4.9041,0.0,0.0,0,1,0,0,0,0,0,1,web,0,1,0,0,0,0,0,0,0,0,1,0,0,0,0,0,1.0,0,0,4632.0,12.765691290604371,1.0,0.6931471805599453,0.0,0.0
13,40.70276,-73.98666800000002,Brooklyn,drop.io,1,2007-11-26,,2007-12-03,2010-05-03,0.0192,2.4356,0.7945,4.3781,15,3,3,0,1,0,0,0,education,0,0,0,0,0,0,0,0,0,1,0,0,1,1,1,0,2.3333,1,1,-1.0,16.11308320963728,2.3333,1.2039628042759356,15.0,2.772588722239781
14,39.74627279999999,-104.9911572,Denver,Stratavia,1,2001-01-01,,2005-08-31,2009-12-29,4.6658,8.9973,8.8384,8.8384,12,5,1,0,0,0,0,1,software,1,0,0,0,0,0,0,0,0,0,0,0,1,1,0,0,2.5,1,1,-1.0,16.185754392890075,2.5,1.252762968495368,12.0,2.5649493574615367
15,38.901301,-77.265158,Vienna,Invicta Networks,0,1999-01-01,2010-03-28,2005-08-09,2005-08-09,6.6082,6.6082,0.0,0.0,0,1,0,0,0,0,0,1,public_relations,0,0,0,0,0,0,0,0,0,1,1,0,0,0,0,0,1.0,0,0,5393.0,12.206077645517674,1.0,0.6931471805599453,0.0,0.0
16,37.39628270000001,-122.105531,Los Altos,QSecure,0,2003-01-01,2012-09-22,2005-08-02,2009-10-05,2.5863,6.7644,5.5014,5.5014,8,5,1,1,0,0,0,0,security,0,0,0,0,0,0,0,0,0,1,1,0,1,1,1,1,3.5,1,0,4484.0,17.707330876483063,3.5,1.5040773967762742,8.0,2.1972245773362196
17,37.590339,-122.341715,Burlingame,MeeVee,1,2000-07-01,,2005-02-01,2007-09-01,4.5918,7.1726,-0.4986,12.6795,7,4,3,1,0,0,0,0,games_video,0,0,0,0,0,1,0,0,0,0,0,0,1,1,1,1,3.5,1,1,-1.0,17.034386422832473,3.5,1.5040773967762742,7.0,2.0794415416798357
18,40.730646,-73.986614,New York,SinglePlatform,1,2010-01-01,,2010-09-29,2011-08-01,0.7425,1.5808,1.2849,3.0027,10,3,3,0,1,0,0,0,web,0,1,0,0,0,0,0,0,0,0,0,1,1,0,0,0,5.0,1,1,-1.0,15.336117475270969,5.0,1.791759469228055,10.0,2.3978952727983707
19,37.446411,-122.16054,Palo Alto,Bling Nation,0,2007-01-01,2011-09-10,2009-07-02,2009-10-30,2.5014,2.8301,3.0877,3.4932,13,2,3,1,0,0,0,0,enterprise,0,0,0,1,0,0,0,0,0,0,0,0,1,1,0,0,1.0,1,0,4862.0,17.147715103853763,1.0,0.6931471805599453,13.0,2.639057329615259
20,30.2350399,-97.80012990000002,Austin,Metreos Corporation,1,2001-01-01,,2003-03-20,2004-10-14,2.2137,3.7863,4.0877,9.4986,8,2,3,0,0,0,1,0,software,1,0,0,0,0,0,0,0,0,0,0,1,1,0,0,0,1.5,0,1,-1.0,15.286835397889838,1.5,0.9162907318741551,8.0,2.1972245773362196
21,47.6026054,-122.2848651,Seattle,Hidden City Games,0,2004-01-01,2011-09-28,2007-10-31,2007-10-31,3.8329,3.8329,3.7507,3.7507,3,1,1,0,0,0,0,1,other,0,0,0,0,0,0,0,0,0,1,0,0,0,1,0,0,2.0,1,0,4844.0,16.52356082573315,2.0,1.0986122886681096,3.0,1.3862943611198906
22,37.426316,-122.141082,Palo Alto,Neopolitan Networks,0,2002-01-01,2008-07-25,2007-06-28,2007-06-28,5.4904,5.4904,0.0,0.0,1,1,1,1,0,0,0,0,web,0,1,0,0,0,0,0,0,0,0,0,0,1,0,0,0,2.0,0,0,6004.0,14.969242461310827,2.0,1.0986122886681096,1.0,0.6931471805599453
23,37.764395,-122.401024,San Francisco,Pixelpipe,0,2008-01-01,2013-08-02,2007-01-01,2011-04-25,-1.0,3.3151,3.6959,5.662999999999999,4,2,3,1,0,0,0,0,mobile,0,0,1,0,0,0,0,0,0,0,0,1,1,0,0,0,2.0,0,0,4170.0,14.648420115681892,2.0,1.0986122886681096,4.0,1.6094379124341003
24,40.010492,-105.276843,Boulder,EventVue,0,2007-05-01,2010-02-01,2007-08-01,2007-09-01,0.2521,0.337,0.0,0.0,5,2,0,0,0,0,0,1,public_relations,0,0,0,0,0,0,0,0,0,1,0,1,1,0,0,0,4.5,1,0,5448.0,13.02805489573287,4.5,1.7047480922384253,5.0,1.791759469228055
25,41.875555,-87.624421,Chicago,BridgePort Networks,1,2002-01-01,,2006-11-03,2006-11-03,4.8411,4.8411,1.0,1.0,3,1,1,0,0,0,0,1,software,1,0,0,0,0,0,0,0,0,0,0,0,0,0,1,0,4.0,1,1,-1.0,16.380459992348886,4.0,1.6094379124341003,3.0,1.3862943611198906
26,37.429676,-122.1085482,Palo Alto,Scalent Systems,1,2003-01-01,,2007-01-22,2007-01-22,4.0603,4.0603,3.0027,3.0027,7,1,1,1,0,0,0,0,public_relations,0,0,0,0,0,0,0,0,0,1,0,0,0,0,1,0,4.0,1,1,-1.0,16.52356082573315,4.0,1.6094379124341003,7.0,2.0794415416798357
27,37.870102,-122.268136,Berkeley,IQ Engines,1,2008-06-01,,2012-06-25,2012-06-25,4.0685,4.0685,3.4192,5.2301,2,1,3,1,0,0,0,0,photo_video,0,0,0,0,0,0,0,0,0,1,0,0,0,1,0,0,2.0,1,1,-1.0,15.150511887854474,2.0,1.0986122886681096,2.0,1.0986122886681096
28,30.2653441,-97.7435857,Austin,"RetailMeNot, Inc.",1,2007-05-01,,2009-11-01,2011-11-10,2.5068,4.5315,4.9315,5.6767,37,5,2,0,0,0,1,0,web,0,1,0,0,0,0,0,0,0,0,1,0,1,0,1,0,1.75,1,1,-1.0,18.718248953612786,1.75,1.0116009116784799,35.0,3.58351893845611
29,33.708708,-117.852069,Santa Ana,Mophie,1,2005-05-24,,2006-08-01,2006-08-01,1.189,1.189,2.189,7.7753,5,1,3,1,0,0,0,0,hardware,0,0,0,0,0,0,0,0,0,1,1,0,0,0,0,0,2.0,1,1,-1.0,13.815511557963774,2.0,1.0986122886681096,5.0,1.791759469228055
30,37.422859,-122.045217,Moffett Field,Airship Ventures,0,2007-01-01,2012-11-14,2008-05-09,2009-03-01,1.3534,2.1644,4.5178,4.5178,3,2,1,1,0,0,0,0,other,0,0,0,0,0,0,0,0,0,1,0,0,1,1,0,0,2.0,1,0,4431.0,16.166885910365842,2.0,1.0986122886681096,3.0,1.3862943611198906
31,47.603832,-122.330062,Seattle,Lockdown Networks,1,2001-01-01,,2005-02-25,2006-03-02,4.1534,5.1671,3.0,3.0,6,2,1,0,0,0,0,1,public_relations,0,0,0,0,0,0,0,0,0,1,1,0,0,1,0,0,1.5,1,1,-1.0,15.967272877502799,1.5,0.9162907318741551,6.0,1.9459101490553132
32,36.002893,-78.904075,Durham,eMinor,0,2006-10-01,2012-02-17,2006-08-01,2008-10-07,-0.1671,2.0192,0.0,0.0,9,2,0,0,0,0,0,1,software,1,0,0,0,0,0,0,0,0,0,0,0,1,1,0,0,2.5,1,0,4702.0,15.424948670398354,2.5,1.252762968495368,9.0,2.302585092994046
33,37.779281,-122.419236,San Francisco,Karma,1,2011-01-01,,2011-01-01,2011-11-14,0.0,0.8685,0.4137,2.1671,3,2,2,1,0,0,0,0,mobile,0,0,1,0,0,0,0,0,0,0,1,0,0,0,0,0,5.0,1,1,-1.0,14.650591234412886,5.0,1.791759469228055,3.0,1.3862943611198906
34,40.441694,-79.990086,Pittsburgh,Zipano,0,2009-06-01,2012-05-27,2009-07-01,2009-07-01,0.0822,0.0822,0.0,0.0,2,1,0,0,0,0,0,1,security,0,0,0,0,0,0,0,0,0,1,0,1,0,0,0,0,1.0,0,0,4602.0,10.12667110305036,1.0,0.6931471805599453,2.0,1.0986122886681096
35,40.73901,-73.997259,New York,Entertainment Media Works,0,2004-07-01,2008-10-01,2007-02-26,2007-02-26,2.6575,2.6575,0.0,0.0,1,1,1,0,1,0,0,0,software,1,0,0,0,0,0,0,0,0,0,0,0,0,1,0,0,1.0,1,0,5936.0,15.201805169084134,1.0,0.6931471805599453,1.0,0.6931471805599453
36,37.791137,-122.391843,San Francisco,Elastra,0,2007-01-01,2011-01-28,2007-08-15,2008-08-05,0.6192,1.5945,1.0,4.3315,8,2,3,1,0,0,0,0,software,1,0,0,0,0,0,0,0,0,0,0,0,1,1,0,0,2.0,1,0,5087.0,16.496532155171714,2.0,1.0986122886681096,8.0,2.1972245773362196
37,37.404788,-121.940842,San Jose,RPO,0,2005-01-01,2013-06-01,2006-01-24,2010-09-13,1.063,5.7014,0.0,0.0,0,3,0,1,0,0,0,0,hardware,0,0,0,0,0,0,0,0,0,1,0,0,0,1,1,0,4.5,1,0,4232.0,17.599700214609808,4.5,1.7047480922384253,0.0,0.0
38,37.7795014,-122.3948712,San Francisco,Fotomoto,1,2008-10-01,,2008-12-01,2011-05-26,0.1671,2.6493,0.6082,4.7507,10,3,3,1,0,0,0,0,ecommerce,0,0,0,0,0,0,1,0,0,0,0,1,1,0,0,0,2.3333,1,1,-1.0,14.41595181469963,2.3333,1.2039628042759356,10.0,2.3978952727983707
39,40.755446,-73.980246,New York,Peer39,1,2006-03-01,,2006-03-01,2012-01-24,0.0,5.9041,3.8411,7.1370000000000005,18,7,5,0,1,0,0,0,advertising,0,0,0,0,1,0,0,0,0,0,1,1,1,1,1,0,2.75,1,1,-1.0,17.213870651662358,2.75,1.3217558399823195,18.0,2.9444389791664403
40,33.756806,-84.392198,Atlanta,Vitrue,1,2006-05-01,,2006-05-01,2011-02-17,0.0,4.8027,3.7205,7.6164,26,4,5,0,0,0,0,1,enterprise,0,0,0,1,0,0,0,0,0,0,0,0,1,1,1,0,3.0,1,1,-1.0,17.312018149733785,3.0,1.3862943611198906,26.0,3.295836866004329
41,42.99564,-71.454789,Manchester,Trendslide,1,2011-08-01,,2011-08-01,2012-03-01,0.0,0.5836,0.5836,0.5945,9,2,2,0,0,0,0,1,mobile,0,0,1,0,0,0,0,0,0,0,0,1,0,0,0,0,1.0,0,1,-1.0,11.736077016252437,1.0,0.6931471805599453,9.0,2.302585092994046
42,40.01573320000001,-105.275027,Menlo Park,PublicEarth,0,2008-01-01,2011-02-15,2008-02-08,2010-05-21,0.1041,2.3863,2.3315,2.7918,7,2,2,1,0,0,0,0,travel,0,0,0,0,0,0,0,0,0,1,1,0,1,0,0,0,1.0,1,0,5069.0,15.201805169084134,1.0,0.6931471805599453,7.0,2.0794415416798357
43,47.63609,-122.327028,Seattle,Azaleos,1,2004-05-11,,2007-11-06,2007-11-06,3.4904,3.4904,5.6603,8.3425,10,1,3,0,0,0,0,1,enterprise,0,0,0,1,0,0,0,0,0,0,0,0,0,0,1,0,2.0,1,1,-1.0,16.118095750958314,2.0,1.0986122886681096,10.0,2.3978952727983707
44,37.4049731,-122.0323525,Sunnyvale,Efficient Frontier,1,2002-01-01,,2006-08-31,2006-08-31,4.6658,4.6658,8.7425,10.2247,25,1,4,1,0,0,0,0,advertising,0,0,0,0,1,0,0,0,0,0,0,0,0,0,1,0,3.0,1,1,-1.0,15.607270193858982,3.0,1.3862943611198906,25.0,3.258096538021482
45,37.36883,-122.03635,Sunnyvale,NetDevices,1,2003-01-01,,2005-08-16,2005-08-16,2.6247,2.6247,0.0,0.0,4,1,0,1,0,0,0,0,software,1,0,0,0,0,0,0,0,0,0,0,0,0,1,0,0,5.0,1,1,-1.0,17.034386422832473,5.0,1.791759469228055,4.0,1.6094379124341003
46,40.730646,-73.986614,New York,Go Try It On,1,2009-12-01,,2010-11-04,2012-11-13,0.926,2.9534,0.8329,2.7425,2,3,3,0,1,0,0,0,fashion,0,0,0,0,0,0,0,0,0,1,0,1,1,0,0,0,2.0,1,1,-1.0,15.137266664613225,2.0,1.0986122886681096,2.0,1.0986122886681096
47,42.3751,-71.105616,Cambridge,Performable,1,2009-10-17,,2010-01-15,2010-01-15,0.2466,0.2466,1.1178,1.663,9,1,2,0,0,1,0,0,software,1,0,0,0,0,0,0,0,0,0,0,0,1,0,0,0,1.0,1,1,-1.0,14.914123179965662,1.0,0.6931471805599453,9.0,2.302585092994046
48,37.779281,-122.419236,San Francisco,Appstores.com,1,2010-05-24,,2010-08-01,2011-08-01,0.189,1.189,1.3562,1.6575,6,2,2,1,0,0,0,0,software,1,0,0,0,0,0,0,0,0,0,0,1,0,0,0,0,9.5,1,1,-1.0,13.959611767738522,9.0,2.302585092994046,6.0,1.9459101490553132
49,37.560781,-122.284114,San Mateo,Fortify Software,1,2002-10-01,,2005-12-15,2005-12-15,3.2082,3.2082,5.2548,7.8822,11,1,2,1,0,0,0,0,software,1,0,0,0,0,0,0,0,0,0,0,0,0,0,0,1,2.0,1,1,-1.0,16.118095750958314,2.0,1.0986122886681096,11.0,2.4849066497880004
50,37.658313,-122.391032,South San Francisco,iCurrent,1,2006-01-01,,2008-08-01,2008-08-01,2.5836,2.5836,2.0,2.0,5,1,1,1,0,0,0,0,web,0,1,0,0,0,0,0,0,0,0,0,0,1,0,0,0,1.0,1,1,-1.0,14.914123179965662,1.0,0.6931471805599453,5.0,1.791759469228055
51,42.360253,-71.058291,Boston,AisleBuyer,1,2009-01-01,,2010-11-23,2011-06-13,1.8932,2.4466,2.0,3.2767,4,2,3,0,0,1,0,0,mobile,0,0,1,0,0,0,0,0,0,0,0,0,0,0,0,0,1.0,1,1,-1.0,16.257857680289998,1.0,0.6931471805599453,4.0,1.6094379124341003
52,30.321464,-97.75501,Austin,Indeed,1,2004-11-01,,2005-08-01,2005-08-01,0.7479,0.7479,4.0493,8.3233,12,1,5,0,0,0,1,0,web,0,1,0,0,0,0,0,0,0,0,0,0,1,0,0,0,3.0,1,1,-1.0,15.424948670398354,3.0,1.3862943611198906,12.0,2.5649493574615367
53,42.37564,-71.2358,Waltham,Colubris Networks,1,2000-01-01,,2005-03-08,2006-10-23,5.1863,6.8137,7.3342,7.3342,9,2,1,0,0,1,0,0,public_relations,0,0,0,0,0,0,0,0,0,1,1,0,0,0,0,1,5.0,1,1,-1.0,17.182806422433504,5.0,1.791759469228055,9.0,2.302585092994046
54,37.7870842,-122.4038047,San Francisco,Mashery,1,2006-05-01,,2007-01-01,2012-07-23,0.6712,6.2329,4.0493,7.5973,37,6,4,1,0,0,0,0,enterprise,0,0,0,1,0,0,0,0,0,0,1,1,1,1,1,1,5.0,1,1,-1.0,17.36225027373553,5.0,1.791759469228055,35.0,3.58351893845611
55,37.441537,-122.158332,Palo Alto,Transparency Software,0,2004-01-01,2009-01-01,2005-03-09,2007-07-01,1.1863,3.4986,0.0,0.0,0,2,0,1,0,0,0,0,software,1,0,0,0,0,0,0,0,0,0,1,0,1,0,0,0,2.0,1,0,5844.0,16.304575300888487,2.0,1.0986122886681096,0.0,0.0
56,37.445586,-122.161929,Palo Alto,Viewdle,1,2006-01-01,,2008-03-01,2010-10-05,2.1644,4.7616,4.0027,6.7534,13,3,2,1,0,0,0,0,analytics,0,0,0,0,0,0,0,0,0,1,1,0,1,1,0,0,2.0,1,1,-1.0,16.300417291085605,2.0,1.0986122886681096,13.0,2.639057329615259
57,33.5842816,-117.7306817,Aliso Viejo,Enclarity,1,2005-02-01,,2009-03-10,2009-03-10,4.1041,4.1041,1.9151,1.9151,18,1,1,1,0,0,0,0,consulting,0,0,0,0,0,0,0,0,1,0,0,0,0,0,1,0,2.0,1,1,-1.0,15.520258832020865,2.0,1.0986122886681096,18.0,2.9444389791664403
58,37.402773,-122.052551,Sunnyvale,Virsto Software,1,2007-07-01,,2009-06-26,2011-08-25,1.989,4.1534,2.8986,5.2575,10,3,4,1,0,0,0,0,software,1,0,0,0,0,0,0,0,0,0,0,0,1,1,0,0,3.3333,1,1,-1.0,16.993564429978885,3.3333,1.4663293764561487,10.0,2.3978952727983707
59,39.103151,-94.581908,Kansas City,Handmark,1,2000-07-01,,2005-09-12,2006-09-07,5.2027,6.189,7.5068,12.8932,6,2,2,0,0,0,0,1,mobile,0,0,1,0,0,0,0,0,0,0,0,0,1,1,0,0,4.5,1,1,-1.0,16.118095750958314,4.5,1.7047480922384253,6.0,1.9459101490553132
60,42.546483,-71.17366700000002,Wilmington,Viacor,0,1999-12-01,2011-11-11,2002-09-12,2010-11-10,2.7836,10.9507,-1.9151,-1.9151,10,3,1,0,0,1,0,0,biotech,0,0,0,0,0,0,0,1,0,0,0,0,0,1,0,0,2.0,1,0,4800.0,16.760458460238958,2.0,1.0986122886681096,10.0,2.3978952727983707
61,37.805289,-122.404448,San Francisco,Carbonetworks,0,2005-01-01,2011-07-28,2008-07-01,2008-07-01,3.4986,3.4986,3.0,3.0,6,1,1,1,0,0,0,0,cleantech,0,0,0,0,0,0,0,0,0,1,0,0,1,0,0,0,1.0,1,0,4906.0,15.424948670398354,1.0,0.6931471805599453,6.0,1.9459101490553132
62,47.675489,-122.191667,Kirkland,SchemaLogic,1,2001-01-01,,2005-01-17,2010-04-20,4.0466,9.3041,6.0027,6.0027,2,5,1,0,0,0,0,1,enterprise,0,0,0,1,0,0,0,0,0,0,1,0,0,0,1,0,3.0,1,1,-1.0,16.7554434525954,3.0,1.3862943611198906,2.0,1.0986122886681096
63,27.951849,-82.456397,Tampa,Skyway Software,0,2001-01-01,2012-10-01,2007-05-16,2007-05-16,6.3726,6.3726,0.0,0.0,0,1,0,0,0,0,0,1,software,1,0,0,0,0,0,0,0,0,0,1,0,0,0,0,0,3.0,0,0,4475.0,15.201805169084134,3.0,1.3862943611198906,0.0,0.0
64,42.360253,-71.058291,Boston,CardStar,1,2008-12-01,,2010-03-30,2011-09-13,1.3259999999999998,2.7836,1.6740000000000002,3.1342,5,3,2,0,0,1,0,0,software,1,0,0,0,0,0,0,0,0,0,0,0,1,0,0,0,3.0,1,1,-1.0,14.523981231813066,3.0,1.3862943611198906,5.0,1.791759469228055
65,37.7831775,-122.3086191,Alameda,Makani Power,1,2006-01-01,,2008-08-23,2008-08-23,2.6438,2.6438,0.0,7.3918,4,1,2,1,0,0,0,0,cleantech,0,0,0,0,0,0,0,0,0,1,0,0,0,1,0,0,1.0,1,1,-1.0,15.424948670398354,1.0,0.6931471805599453,4.0,1.6094379124341003
66,47.765758,-122.184304,Bothell,Myrio,0,1999-12-01,2012-01-01,2001-01-01,2001-01-01,1.0877,1.0877,0.0,0.0,5,1,0,0,0,0,0,1,software,1,0,0,0,0,0,0,0,0,0,1,0,0,0,0,0,4.0,1,0,4749.0,16.835935492889124,4.0,1.6094379124341003,5.0,1.791759469228055
67,40.730646,-73.986614,Boulder,Intela,1,2006-02-02,,2010-01-18,2012-08-09,3.9616,6.5205,4.5781,7.6877,4,2,4,0,0,0,0,1,advertising,0,0,0,0,1,0,0,0,0,0,1,0,0,0,0,0,2.0,0,1,-1.0,16.3995081858682,2.0,1.0986122886681096,4.0,1.6094379124341003
68,37.54763,-122.307887,San Mateo,Sana Security,1,2000-01-01,,2007-04-02,2007-04-02,7.2548,7.2548,7.0055,7.0055,7,1,1,1,0,0,0,0,security,0,0,0,0,0,0,0,0,0,1,0,0,0,0,0,0,2.0,1,1,-1.0,16.300417291085605,2.0,1.0986122886681096,7.0,2.0794415416798357
69,37.790485,-122.40094,San Francisco,Sportgenic,1,2005-09-01,,2007-01-01,2008-09-09,1.3342,3.0247,3.0219,3.337,9,3,2,1,0,0,0,0,advertising,0,0,0,0,1,0,0,0,0,0,0,1,1,1,0,0,3.3333,1,1,-1.0,16.256960495409263,3.3333,1.4663293764561487,9.0,2.302585092994046
70,37.7870923,-122.3999719,San Francisco,Lolapps,1,2008-01-01,,2008-09-05,2008-09-05,0.6795,0.6795,2.9178,4.2274,15,1,3,1,0,0,0,0,web,0,1,0,0,0,0,0,0,0,0,0,0,1,0,0,0,3.0,1,1,-1.0,15.201805169084134,3.0,1.3862943611198906,15.0,2.772588722239781
71,37.3492097,-122.0326019,Sunnyvale,Behavio,1,2012-06-12,,2012-06-01,2012-06-01,-0.0301,-0.0301,0.1369999999999999,0.1369999999999999,3,1,1,1,0,0,0,0,software,1,0,0,0,0,0,0,0,0,0,0,1,0,0,0,0,1.0,0,1,-1.0,12.779875885354993,1.0,0.6931471805599453,3.0,1.3862943611198906
72,28.098905,-82.400087,Tampa,Infinity Box,1,2006-01-01,,2006-01-01,2006-04-01,0.0,0.2466,2.4164,5.3151,10,2,3,0,0,0,0,1,web,0,1,0,0,0,0,0,0,0,0,0,1,0,0,0,0,1.5,1,1,-1.0,11.678448377988165,1.5,0.9162907318741551,10.0,2.3978952727983707
74,32.9583632,-96.8215658,Dallas,Texert,0,2007-01-01,2008-07-14,2008-10-21,2008-10-21,1.8055,1.8055,0.0,0.0,1,1,0,0,0,0,1,0,software,1,0,0,0,0,0,0,0,0,0,0,0,1,0,0,0,1.0,1,0,6015.0,14.914123179965662,1.0,0.6931471805599453,1.0,0.6931471805599453
75,37.54827,-121.988572,Fremont,Mendocino Software,0,2003-01-01,2008-02-07,2005-09-12,2007-01-01,2.6986,4.0027,1.0,1.0,2,2,1,1,0,0,0,0,software,1,0,0,0,0,0,0,0,0,0,1,0,0,1,0,0,4.0,1,0,6173.0,16.796129244469636,4.0,1.6094379124341003,2.0,1.0986122886681096
76,37.354469,-121.990433,Santa Clara,QuikCycle,0,1998-01-01,2011-01-01,2007-03-01,2007-03-12,9.1671,9.1973,0.0,0.0,0,2,0,1,0,0,0,0,software,1,0,0,0,0,0,0,0,0,0,1,0,0,0,0,0,1.0,1,0,5114.0,16.694709071442087,1.0,0.6931471805599453,0.0,0.0
77,37.779281,-122.419236,San Francisco,Instagram,1,2010-03-01,,2010-03-05,2012-04-05,0.011,2.0986,3.0904,3.7836,12,3,3,1,0,0,0,0,photo_video,0,0,0,0,0,0,0,0,0,1,0,1,1,1,0,0,4.0,1,1,-1.0,17.867295523158884,4.0,1.6094379124341003,12.0,2.5649493574615367
78,40.606061,-73.822331,New York,Motionbox,1,2006-01-01,,2006-09-01,2009-01-14,0.6658,3.0384,2.0,5.0548,10,3,5,0,1,0,0,0,games_video,0,0,0,0,0,1,0,0,0,0,0,0,1,1,1,0,2.6667,1,1,-1.0,16.660419999923214,2.6667,1.2992920749980297,10.0,2.3978952727983707
79,42.3751,-71.105616,Cambridge,AccelGolf,0,2008-08-01,2013-05-01,2008-01-01,2009-12-04,-0.5836,1.3425,0.0,1.5479,4,7,2,0,0,1,0,0,mobile,0,0,1,0,0,0,0,0,0,0,1,1,0,0,0,0,1.0,1,0,4263.0,13.03305773423396,1.0,0.6931471805599453,4.0,1.6094379124341003
80,37.779281,-122.419236,San Francisco,MoPub,1,2010-09-09,,2010-09-01,2012-09-20,-0.0219,2.0329,2.3151,3.1644,11,4,3,1,0,0,0,0,mobile,0,0,1,0,0,0,0,0,0,0,0,1,1,1,0,0,2.25,1,1,-1.0,16.733281344102608,2.25,1.1786549963416462,11.0,2.4849066497880004
81,40.349274,-74.659296,Princeton,DNP Green Technology,0,2008-01-01,2012-08-24,2010-01-17,2010-01-17,2.0466,2.0466,0.0,0.0,2,1,0,0,0,0,0,1,cleantech,0,0,0,0,0,0,0,0,0,1,0,0,1,0,0,0,6.0,1,0,4513.0,16.300417291085605,6.0,1.9459101490553132,2.0,1.0986122886681096
82,40.397761,-105.07498,Loveland,Abound Solar,0,2007-01-01,2012-11-01,2010-07-06,2010-12-15,3.5123,3.9562,3.9534,4.8356,5,2,3,0,0,0,0,1,cleantech,0,0,0,0,0,0,0,0,0,1,1,0,0,0,0,0,2.5,1,0,4444.0,18.718248953612786,2.5,1.252762968495368,5.0,1.791759469228055
83,37.420428,-122.090769,Mountain View,Trovix,1,2002-01-01,,2005-12-07,2006-09-06,3.9342,4.6822,4.0027,4.0027,3,2,1,1,0,0,0,0,search,0,0,0,0,0,0,0,0,0,1,0,0,1,1,0,0,2.5,1,1,-1.0,16.719675692787295,2.5,1.252762968495368,3.0,1.3862943611198906
84,40.725435,-73.997395,New York,Thumbplay,1,2004-09-01,,2006-10-30,2010-04-21,2.1616,5.6384,3.8329,7.6932,13,4,5,0,1,0,0,0,music,0,0,0,0,0,0,0,0,0,1,0,0,0,0,1,0,4.0,1,1,-1.0,17.541204467128523,4.0,1.6094379124341003,13.0,2.639057329615259
85,39.388156,-77.885552,Kearneysville,Plethora Technology,0,2000-01-01,2009-05-23,2005-06-09,2005-06-09,5.4411,5.4411,0.0,0.0,1,1,0,0,0,0,0,1,software,1,0,0,0,0,0,0,0,0,0,0,0,1,0,0,0,3.0,0,0,5702.0,13.815511557963774,3.0,1.3862943611198906,1.0,0.6931471805599453
86,34.043948,-118.468204,Los Angeles,DailyStrength,1,2006-04-01,,2007-05-18,2007-05-18,1.1288,1.1288,1.0,2.6767,7,1,2,1,0,0,0,0,web,0,1,0,0,0,0,0,0,0,0,0,0,1,0,0,0,1.0,1,1,-1.0,15.424948670398354,1.0,0.6931471805599453,7.0,2.0794415416798357
87,42.350749,-83.44458900000002,Canton,Danotek Motion Technologies,0,2001-01-01,2013-05-01,2008-11-19,2011-08-30,7.8877,10.6658,0.4137,0.4137,2,3,1,0,0,0,0,1,cleantech,0,0,0,0,0,0,0,0,0,1,1,0,0,1,0,0,3.6667,1,0,4263.0,17.569709501618057,3.6667,1.5404521837787817,2.0,1.0986122886681096
89,47.614018,-122.19655,Bellevue,SNAPin Software,1,2003-01-01,,2005-07-11,2006-02-07,2.526,3.1041,3.0027,9.126,5,2,2,0,0,0,0,1,software,1,0,0,0,0,0,0,0,0,0,0,0,0,1,1,0,4.5,1,1,-1.0,16.920097281273396,4.5,1.7047480922384253,5.0,1.791759469228055
90,37.406217,-121.976473,Santa Clara,Azuro,1,2002-01-01,,2006-01-01,2009-11-13,4.0027,7.8712,0.1616,0.1616,5,2,1,1,0,0,0,0,semiconductor,0,0,0,0,0,0,0,0,0,1,1,0,0,1,0,0,4.0,1,1,-1.0,16.118095750958314,4.0,1.6094379124341003,5.0,1.791759469228055
91,37.09024,-95.712891,Washington,ARPU,0,2005-05-01,2010-05-04,2006-07-01,2009-12-29,1.1671,4.6658,0.0,0.0,1,3,0,0,0,0,0,1,advertising,0,0,0,0,1,0,0,0,0,0,1,0,0,1,1,0,3.5,1,0,5356.0,16.560509148857687,3.5,1.5040773967762742,1.0,0.6931471805599453
92,37.779281,-122.419236,San Francisco,BookFresh,1,2007-01-01,,2009-07-28,2009-07-28,2.5726,2.5726,2.4795,4.6685,7,1,2,1,0,0,0,0,web,0,1,0,0,0,0,0,0,0,0,0,1,0,0,0,0,5.0,1,1,-1.0,13.122365377402328,5.0,1.791759469228055,7.0,2.0794415416798357
93,37.779281,-122.419236,San Francisco,Singly,1,2010-12-21,,2011-02-01,2012-04-23,0.1151,1.3397,1.8329,2.6712,24,2,2,1,0,0,0,0,analytics,0,0,0,0,0,0,0,0,0,1,0,0,1,0,0,0,7.0,1,1,-1.0,16.007164201982874,7.0,2.0794415416798357,24.0,3.2188758248682006
94,40.753881,-73.978852,New York,TxVia,1,2006-01-01,,2007-10-01,2010-10-26,1.7479,4.8192,4.0027,4.8192,8,4,2,0,1,0,0,0,finance,0,0,0,0,0,0,0,0,0,1,0,0,1,1,1,1,4.0,1,1,-1.0,17.829187235185767,4.0,1.6094379124341003,8.0,2.1972245773362196
95,37.406914,-122.09037,Mountain View,Blue Vector Systems,0,2002-01-01,2010-08-31,2005-09-21,2005-09-21,3.7233,3.7233,0.0,0.0,1,1,0,1,0,0,0,0,public_relations,0,0,0,0,0,0,0,0,0,1,0,0,0,1,0,0,3.0,1,0,5237.0,15.201805169084134,3.0,1.3862943611198906,1.0,0.6931471805599453
96,41.878984,-87.637,Chicago,Open Kernel Labs,1,2006-01-01,,2007-09-13,2012-07-06,1.6986,6.5151,3.2849,4.9315,3,5,3,0,0,0,0,1,software,1,0,0,0,0,0,0,0,0,0,1,0,1,0,0,0,2.0,1,1,-1.0,16.191747890710374,2.0,1.0986122886681096,3.0,1.3862943611198906
97,40.535316,-74.521435,Somerset,Elanti Systems,0,2007-01-01,2012-02-11,2008-05-29,2008-05-29,1.4082,1.4082,0.0,0.0,1,1,1,0,0,0,0,1,software,1,0,0,0,0,0,0,0,0,0,1,0,0,0,0,0,3.0,1,0,4708.0,15.520258832020865,3.0,1.3862943611198906,1.0,0.6931471805599453
98,37.779281,-122.419236,San Francisco,Astrid,1,2008-01-01,,2012-04-13,2012-04-13,4.2849,4.2849,2.4164,5.5151,7,1,2,1,0,0,0,0,social,0,0,0,0,0,0,0,0,0,1,0,1,0,0,0,0,3.0,1,1,-1.0,12.899222326086994,3.0,1.3862943611198906,7.0,2.0794415416798357
99,37.863464,-122.3153453,Berkeley,Nordic Windpower,0,2007-01-01,2013-04-10,2007-10-02,2010-01-05,0.7507,3.0137,0.0,0.0,3,3,0,1,0,0,0,0,cleantech,0,0,0,0,0,0,0,0,0,1,1,0,0,0,1,0,2.6667,1,0,4284.0,17.804494623047066,2.6667,1.2992920749980297,3.0,1.3862943611198906
100,34.070958000000005,-84.274733,Alpharetta,Visiprise,0,1985-01-01,2009-05-03,2005-10-17,2005-10-17,20.8055,20.8055,0.0,0.0,2,1,0,0,0,0,0,1,software,1,0,0,0,0,0,0,0,0,0,0,0,0,1,0,0,7.0,1,0,5722.0,17.281246492014,7.0,2.0794415416798357,2.0,1.0986122886681096
101,39.78373,-100.445882,Seattle,Hubspan,1,2000-01-01,,2005-10-14,2005-10-14,5.789,5.789,0.0,0.0,1,1,0,0,0,0,0,1,software,1,0,0,0,0,0,0,0,0,0,0,0,0,0,0,1,4.0,1,1,-1.0,16.380459992348886,4.0,1.6094379124341003,1.0,0.6931471805599453
102,47.614422,-122.192337,Bellevue,iConclude,1,2005-01-01,,2005-02-01,2006-04-10,0.0849,1.2712,0.0,0.0,5,3,0,0,0,0,0,1,software,1,0,0,0,0,0,0,0,0,0,1,0,1,1,0,0,2.3333,1,1,-1.0,16.341239282272525,2.3333,1.2039628042759356,5.0,1.791759469228055
103,37.314002,-121.932365,San Jose,41st Parameter,1,2004-01-01,,2006-05-08,2012-04-11,2.3507,8.2822,1.0027,8.2849,16,4,2,1,0,0,0,0,security,0,0,0,0,0,0,0,0,0,1,1,0,0,1,1,1,3.0,1,1,-1.0,17.454794512463224,3.0,1.3862943611198906,16.0,2.833213344056216
104,37.748676,-122.415813,San Francisco,Aardvark,1,2007-07-01,2011-09-01,2007-01-01,2008-10-01,-0.4959,1.2548,2.1726,4.6,21,2,2,1,0,0,0,0,web,0,1,0,0,0,0,0,0,0,0,0,1,1,0,0,0,4.0,1,1,4871.0,15.607270193858982,4.0,1.6094379124341003,21.0,3.091042453358316
105,38.030823,-78.48158000000002,Charlottesville,Hotelicopter,0,2006-06-01,2012-08-01,2008-11-17,2011-03-31,2.4658,4.8329,0.5863,5.6164,4,2,6,0,0,0,0,1,web,0,1,0,0,0,0,0,0,0,0,0,0,1,1,0,0,1.0,0,0,4536.0,15.424948670398354,1.0,0.6931471805599453,4.0,1.6094379124341003
106,39.035298,-77.430125,Dulles,Anystream,1,2000-01-01,,2000-01-01,2007-02-07,0.0,7.1068,6.0055,10.9041,9,3,3,0,0,0,0,1,software,1,0,0,0,0,0,0,0,0,0,1,0,0,0,1,0,2.0,1,1,-1.0,17.893048018819147,2.0,1.0986122886681096,9.0,2.302585092994046
107,39.78373,-100.445882,Chicago,CakeStyle,0,2011-08-01,2013-08-01,2012-08-13,2012-08-13,1.0356,1.0356,0.0,1.0356,2,1,2,0,0,0,0,1,web,0,1,0,0,0,0,0,0,0,0,0,1,0,0,0,0,1.0,0,0,4171.0,13.815511557963774,1.0,0.6931471805599453,2.0,1.0986122886681096
108,37.758062,-122.418642,San Francisco,Fluther,1,2007-01-01,,2009-09-21,2009-09-21,2.7233,2.7233,0.9151,6.3096,5,1,3,1,0,0,0,0,web,0,1,0,0,0,0,0,0,0,0,0,1,0,0,0,0,7.0,1,1,-1.0,13.304686600863562,7.0,2.0794415416798357,5.0,1.791759469228055
109,41.85361500000001,-72.70375,Bloomfield,Pocket Communications Northeast,0,2006-01-01,2012-01-01,2008-11-01,2009-02-20,2.8356,3.1397,3.3781,3.7753,0,2,2,0,0,0,0,1,mobile,0,0,1,0,0,0,0,0,0,0,0,0,1,1,0,0,2.0,1,0,4749.0,18.643824303266577,2.0,1.0986122886681096,0.0,0.0
110,34.01052,-118.495981,Santa Monica,Goodreads,1,2007-01-15,,2007-11-01,2009-12-09,0.7945,2.9014,3.0493,6.5233,11,2,3,1,0,0,0,0,web,0,1,0,0,0,0,0,0,0,0,0,1,1,0,0,0,4.0,1,1,-1.0,14.827111833279051,4.0,1.6094379124341003,11.0,2.4849066497880004
111,37.3821368,-121.970505,Santa Clara,Woven Systems,1,2003-01-01,,2005-12-01,2007-09-25,2.9178,4.7342,0.0,0.0,1,2,0,1,0,0,0,0,network_hosting,0,0,0,0,0,0,0,0,0,1,0,0,1,1,0,0,2.5,1,1,-1.0,17.216707972959764,2.5,1.252762968495368,1.0,0.6931471805599453
112,37.433646,-121.886704,Milpitas,Kolorific,0,2003-01-01,2012-07-07,2007-01-05,2007-01-05,4.0137,4.0137,0.0,0.0,0,1,0,1,0,0,0,0,semiconductor,0,0,0,0,0,0,0,0,0,1,0,0,0,0,1,0,1.0,0,0,4561.0,15.76142084987672,1.0,0.6931471805599453,0.0,0.0
113,37.45604,-122.165399,Menlo Park,Krugle,1,2006-01-01,,2006-05-31,2006-05-31,0.411,0.411,0.0,2.5342,10,1,2,1,0,0,0,0,search,0,0,0,0,0,0,0,0,0,1,0,0,0,1,0,0,4.0,1,1,-1.0,15.623799493077952,4.0,1.6094379124341003,10.0,2.3978952727983707
114,32.721834,-117.161797,San Diego,Flud,0,2010-10-01,2013-08-08,2011-04-13,2012-09-01,0.5315,1.9205,2.2548,2.9781,12,3,2,1,0,0,0,0,enterprise,0,0,0,1,0,0,0,0,0,0,1,1,0,0,0,0,4.0,1,0,4164.0,14.557448378884015,4.0,1.6094379124341003,12.0,2.5649493574615367
115,37.779281,-122.419236,San Francisco,Chomp,1,2009-09-09,,2009-11-01,2010-03-11,0.1452,0.5014,0.4959,3.011,10,2,3,1,0,0,0,0,mobile,0,0,1,0,0,0,0,0,0,0,0,1,1,0,0,0,3.5,1,1,-1.0,14.757469426450479,3.5,1.5040773967762742,10.0,2.3978952727983707
116,37.584103000000006,-122.366082,Burlingame,Origen Therapeutics,0,1997-01-01,2012-08-03,2007-10-03,2007-10-03,10.7589,10.7589,0.0,0.0,0,1,0,1,0,0,0,0,biotech,0,0,0,0,0,0,0,1,0,0,0,0,0,0,0,0,1.0,0,0,4534.0,14.508658238524095,1.0,0.6931471805599453,0.0,0.0
117,35.76524000000001,-78.731161,Raleigh,Inlet Technologies,1,2003-01-01,,2005-07-26,2008-09-08,2.5671,5.6904,2.0027,2.0027,3,3,1,0,0,0,0,1,network_hosting,0,0,0,0,0,0,0,0,0,1,1,0,0,1,1,0,3.6667,1,1,-1.0,16.924571561468124,3.6667,1.5404521837787817,3.0,1.3862943611198906
118,40.740441,-73.993376,New York,ShopWiki,1,2005-06-01,,2006-07-01,2006-07-01,1.0822,1.0822,6.0027,6.0027,12,1,1,0,1,0,0,0,ecommerce,0,0,0,0,0,0,1,0,0,0,0,0,1,0,0,0,1.0,0,1,-1.0,15.648092181712572,1.0,0.6931471805599453,12.0,2.5649493574615367
119,40.750519,-73.993494,New York,Fondu,1,2010-02-01,,2011-11-01,2011-11-01,1.7479,1.7479,1.0,2.1096,4,1,2,0,1,0,0,0,web,0,1,0,0,0,0,0,0,0,0,0,1,0,0,0,0,6.0,0,1,-1.0,13.26212705890841,6.0,1.9459101490553132,4.0,1.6094379124341003
120,42.387597,-71.099497,Somerville,Loudcaster,0,2009-08-01,2012-01-01,2009-08-01,2010-03-01,0.0,0.5808,0.0,0.0,1,2,1,0,0,1,0,0,web,0,1,0,0,0,0,0,0,0,0,0,1,0,0,0,0,1.0,1,0,4749.0,10.87806606028079,1.0,0.6931471805599453,1.0,0.6931471805599453
121,37.522281,-122.258139,Redwood City,TwoFish,1,2006-01-01,,2006-12-01,2008-10-10,0.9151,2.7753,3.0027,3.6466,6,2,2,1,0,0,0,0,ecommerce,0,0,0,0,0,0,1,0,0,0,0,0,1,1,0,0,2.5,1,1,-1.0,16.066802461833923,2.5,1.252762968495368,6.0,1.9459101490553132
122,40.694599,-73.990638,Austin,Workstreamer,0,2009-10-01,2013-06-01,2009-01-01,2010-07-27,-0.7479,0.8192,-1.7507,0.2521,7,2,2,0,0,0,1,0,enterprise,0,0,0,1,0,0,0,0,0,0,0,1,1,0,0,0,1.0,1,0,4232.0,15.068273812173887,1.0,0.6931471805599453,7.0,2.0794415416798357
123,40.729839,-73.991781,New York,Qwiki,1,2009-10-01,,2010-07-10,2011-03-31,0.7726,1.4959,-0.5863,3.7534,14,3,3,0,1,0,0,0,photo_video,0,0,0,0,0,0,0,0,0,1,1,0,1,0,0,0,6.3333,1,1,-1.0,16.166885910365842,6.3333,1.9924256192253302,14.0,2.70805020110221
124,37.54827,-121.988572,Fremont,Redwood Systems,1,2008-01-01,,2008-10-03,2012-05-30,0.7562,4.4137,2.7836,4.0027,14,4,2,1,0,0,0,0,cleantech,0,0,0,0,0,0,0,0,0,1,1,0,1,1,1,0,2.25,1,1,-1.0,17.34919715186959,2.25,1.1786549963416462,14.0,2.70805020110221
125,42.37564,-71.2358,Waltham,Artisan Pharma,1,2006-01-01,,2006-09-06,2010-07-20,0.6795,4.5507,0.0,0.0,2,5,0,0,0,1,0,0,biotech,0,0,0,0,0,0,0,1,0,0,0,0,1,1,1,0,4.6667,1,1,-1.0,18.262635463336707,4.6667,1.7346069377237465,2.0,1.0986122886681096
126,39.436844,-76.61870400000002,Timonium,Bill Me Later,1,2000-01-01,,2006-03-01,2007-12-01,6.1671,7.9205,8.0055,11.2548,6,3,3,0,0,0,0,1,web,0,1,0,0,0,0,0,0,0,0,1,0,1,0,0,0,2.5,1,1,-1.0,18.420680753952364,2.5,1.252762968495368,6.0,1.9459101490553132
127,40.441694,-79.990086,Pittsburgh,Bueda,0,2009-01-04,2013-06-01,2008-01-01,2010-07-01,-1.011,1.4877,0.4055,1.3205,3,2,2,0,0,0,0,1,advertising,0,0,0,0,1,0,0,0,0,0,1,1,0,0,0,0,1.0,1,0,4232.0,11.736077016252437,1.0,0.6931471805599453,3.0,1.3862943611198906
128,38.958402,-77.357974,Reston,Defywire,0,2003-01-01,2008-05-01,2005-04-26,2007-03-27,2.3178,4.2356,-0.3342,-0.3342,2,2,1,0,0,0,0,1,mobile,0,0,1,0,0,0,0,0,0,0,1,0,0,1,0,0,3.0,1,0,6089.0,16.176364653421913,3.0,1.3862943611198906,2.0,1.0986122886681096
129,37.554214,-121.977451,Fremont,Silicon Clocks,1,2004-01-01,,2006-06-02,2009-06-08,2.4192,5.4384,2.0027,2.0027,2,3,1,1,0,0,0,0,semiconductor,0,0,0,0,0,0,0,0,0,1,1,0,0,1,0,0,3.5,1,1,-1.0,17.077445910607096,3.5,1.5040773967762742,2.0,1.0986122886681096
130,40.762674,-73.9821315,New York,TheMarkets,1,2000-01-01,,2007-07-12,2007-07-12,7.5315,7.5315,10.7342,10.7342,2,1,1,0,1,0,0,0,web,0,1,0,0,0,0,0,0,0,0,1,0,0,0,0,0,5.0,1,1,-1.0,17.216707972959764,5.0,1.791759469228055,2.0,1.0986122886681096
131,41.875555,-87.624421,Chicago,Netgamix Inc,0,2010-09-24,2012-04-03,2011-10-15,2012-07-01,1.0575,1.7699,1.0301,1.1123,6,3,2,0,0,0,0,1,games_video,0,0,0,0,0,1,0,0,0,0,0,1,0,0,0,0,1.0,1,0,4656.0,11.797246896789762,1.0,0.6931471805599453,6.0,1.9459101490553132
132,37.55911,-122.303493,Santa Clara,Sentrigo,1,2006-10-01,,2007-05-08,2010-12-21,0.6,4.2247,-0.7479,4.4767,9,3,2,1,0,0,0,0,software,1,0,0,0,0,0,0,0,0,0,0,0,1,1,1,0,2.0,1,1,-1.0,16.066802461833923,2.0,1.0986122886681096,9.0,2.302585092994046
133,37.440682,-122.123103,Palo Alto,Netli,1,2000-01-01,,2006-02-13,2006-02-13,6.1233,6.1233,6.0055,6.0055,9,1,1,1,0,0,0,0,network_hosting,0,0,0,0,0,0,0,0,0,1,1,0,0,0,0,0,7.0,1,1,-1.0,16.705882371415992,7.0,2.0794415416798357,9.0,2.302585092994046
134,39.099909,-84.504243,Cincinnati,Define My Style,0,2010-02-01,2012-01-01,2011-12-02,2011-12-02,1.8329,1.8329,1.7479,1.7479,4,1,1,0,0,0,0,1,web,0,1,0,0,0,0,0,0,0,0,0,1,0,0,0,0,3.0,1,0,4749.0,13.444448325847754,3.0,1.3862943611198906,4.0,1.6094379124341003
135,33.749099,-84.390185,Atlanta,Firethorn,1,2001-01-01,,2006-03-01,2007-01-02,5.1644,6.0055,0.0,0.0,1,3,0,0,0,0,0,1,mobile,0,0,1,0,0,0,0,0,0,0,1,0,0,1,0,0,1.0,1,1,-1.0,17.039637053901,1.0,0.6931471805599453,1.0,0.6931471805599453
136,37.404788,-121.940842,San Jose,Wellcore,0,2007-01-01,2013-07-01,2010-07-12,2010-07-12,3.5288,3.5288,0.0,0.0,1,1,0,1,0,0,0,0,hardware,0,0,0,0,0,0,0,0,0,1,0,0,0,0,0,0,1.0,1,0,4202.0,14.508658238524095,1.0,0.6931471805599453,1.0,0.6931471805599453
137,42.3634664,-71.07866379999999,Cambridge,Taligen Therapeutics,1,2004-01-01,,2005-08-01,2010-08-23,1.5836,6.6466,5.0055,7.0877,4,3,2,0,0,1,0,0,biotech,0,0,0,0,0,0,0,1,0,0,0,0,1,1,0,0,3.5,1,1,-1.0,18.18178884836843,3.5,1.5040773967762742,4.0,1.6094379124341003
138,37.551441,-122.291435,San Mateo,Adap.tv,1,2006-11-01,,2007-02-01,2011-03-28,0.2521,4.4055,3.3151,6.7918,27,5,3,1,0,0,0,0,advertising,0,0,0,0,1,0,0,0,0,0,1,1,1,1,1,0,2.5,1,1,-1.0,17.697074376526267,2.5,1.252762968495368,27.0,3.332204510175204
139,37.77951820000001,-122.3902619,San Francisco,Current Media,0,2005-01-01,2013-08-20,2005-07-29,2005-07-29,0.5726,0.5726,5.1671,8.0082,12,1,2,1,0,0,0,0,network_hosting,0,0,0,0,0,0,0,0,0,1,0,0,1,0,0,0,3.0,0,0,4152.0,16.52356082573315,3.0,1.3862943611198906,12.0,2.5649493574615367
140,37.31665260000001,-122.05074,Campbell,ParAccel,1,2007-01-01,,2007-12-10,2012-04-25,0.9397,5.3178,0.0,0.0,13,5,0,1,0,0,0,0,analytics,0,0,0,0,0,0,0,0,0,1,1,0,0,1,1,0,5.3333,1,1,-1.0,18.119575664681957,5.3333,1.8458214273265856,13.0,2.639057329615259
141,37.783171,-122.392901,San Francisco,Arch Rock Corporation,1,2005-01-01,,2005-10-01,2007-05-02,0.7479,2.3315,2.0,2.0,6,2,1,1,0,0,0,0,software,1,0,0,0,0,0,0,0,0,0,0,0,1,1,0,0,3.0,1,1,-1.0,16.52356082573315,3.0,1.3862943611198906,6.0,1.9459101490553132
142,37.09024,-95.712891,New York,SpiralFrog,0,2004-01-01,2009-03-20,2006-01-01,2007-12-01,2.0027,3.9178,3.0027,5.2192,8,3,3,0,1,0,0,0,games_video,0,0,0,0,0,1,0,0,0,0,0,0,1,0,0,0,1.0,0,0,5766.0,17.622173069956816,1.0,0.6931471805599453,8.0,2.1972245773362196
143,37.400367,-121.985711,Santa Clara,Plusmo,1,2006-06-01,,2008-05-01,2008-05-01,1.9178,1.9178,2.0027,2.0027,4,1,1,1,0,0,0,0,mobile,0,0,1,0,0,0,0,0,0,0,0,0,1,0,0,0,1.0,1,1,-1.0,15.299385474180372,1.0,0.6931471805599453,4.0,1.6094379124341003
144,39.001619,-77.403201,Sterling,ZipList,1,2010-01-01,,2010-01-01,2010-11-24,0.0,0.8959,2.0,2.6767,9,2,2,0,0,0,0,1,web,0,1,0,0,0,0,0,0,0,0,0,0,1,1,0,0,2.0,1,1,-1.0,15.319588176962746,2.0,1.0986122886681096,9.0,2.302585092994046
145,37.788653,-122.401333,San Francisco,Involver,1,2007-01-01,,2008-09-02,2010-10-14,1.6712,3.7863,4.6685,5.6849,11,3,2,1,0,0,0,0,software,1,0,0,0,0,0,0,0,0,0,0,0,1,1,1,0,2.5,1,1,-1.0,16.21703568939293,2.5,1.252762968495368,11.0,2.4849066497880004
146,37.779281,-122.419236,San Francisco,Lionside,1,2009-01-01,,2010-11-19,2010-11-19,1.8822,1.8822,1.3288,2.9479,6,1,2,1,0,0,0,0,games_video,0,0,0,0,0,1,0,0,0,0,0,0,1,0,0,0,3.0,1,1,-1.0,14.285514812209815,3.0,1.3862943611198906,6.0,1.9459101490553132
147,40.73901,-73.997259,New York,Game Trust,1,2002-01-01,,2005-06-01,2005-11-15,3.4164,3.874,7.7534,7.7534,3,2,1,0,1,0,0,0,software,1,0,0,0,0,0,0,0,0,0,1,0,0,1,0,0,4.0,1,1,-1.0,16.012735246411598,4.0,1.6094379124341003,3.0,1.3862943611198906
148,37.548418700000006,-122.3151646,San Mateo,Nearbuy Systems,1,2010-04-01,,2011-07-21,2012-11-23,1.3041,2.6493,0.0,3.6767,4,3,2,1,0,0,0,0,analytics,0,0,0,0,0,0,0,0,0,1,1,0,0,0,0,0,2.0,1,1,-1.0,15.004063484700145,2.0,1.0986122886681096,4.0,1.6094379124341003
149,37.55818,-122.276454,Foster City,Visible Path,1,2002-01-01,,2006-03-01,2006-03-01,4.1644,4.1644,5.5836,11.3918,5,2,5,1,0,0,0,0,web,0,1,0,0,0,0,0,0,0,0,0,0,1,1,0,0,4.0,1,1,-1.0,17.022313842084035,4.0,1.6094379124341003,5.0,1.791759469228055
150,33.774486,-84.385448,Atlanta,VT Silicon,0,2002-01-01,2010-09-20,2007-09-12,2008-11-19,5.6986,6.8877,0.0,0.0,2,2,0,0,0,0,0,1,semiconductor,0,0,0,0,0,0,0,0,0,1,1,0,1,0,0,0,1.0,1,0,5217.0,15.990262393084793,1.0,0.6931471805599453,2.0,1.0986122886681096
151,34.03423370000001,-118.4536137,Los Angeles,GetBack,0,2007-09-01,2010-11-22,2008-11-06,2008-11-06,1.1836,1.1836,0.9178,0.9178,1,1,1,1,0,0,0,0,web,0,1,0,0,0,0,0,0,0,0,0,0,1,0,0,0,1.0,0,0,5154.0,14.346139397261565,1.0,0.6931471805599453,1.0,0.6931471805599453
152,37.835676,-122.263548,Oakland,Slipstream,0,2010-06-01,2013-05-01,2010-08-31,2010-08-31,0.2493,0.2493,0.0,0.7781,1,1,2,1,0,0,0,0,web,0,1,0,0,0,0,0,0,0,0,0,1,0,0,0,0,1.0,0,0,4263.0,9.90353755128617,1.0,0.6931471805599453,1.0,0.6931471805599453
153,37.5541073,-121.9756765,Fremont,HipLogic,1,2005-01-01,,2008-02-08,2009-12-02,3.1041,4.9205,5.0027,8.3534,10,2,5,1,0,0,0,0,mobile,0,0,1,0,0,0,0,0,0,0,0,0,1,1,0,0,2.5,1,1,-1.0,16.257857680289998,2.5,1.252762968495368,10.0,2.3978952727983707
154,38.279431,-122.668452,Petaluma,Dilithium Networks,0,2001-01-01,2012-10-01,2003-04-23,2010-06-03,2.3068,9.4247,4.4986,11.4164,12,7,3,1,0,0,0,0,mobile,0,0,1,0,0,0,0,0,0,0,1,0,0,1,1,1,5.2,1,0,4475.0,18.402211237855116,5.2,1.8245492920510458,12.0,2.5649493574615367
155,37.7824533,-122.3879489,San Francisco,Yobongo,1,2010-01-01,,2011-03-23,2011-03-23,1.2219,1.2219,0.7479,2.6849,2,1,3,1,0,0,0,0,web,0,1,0,0,0,0,0,0,0,0,0,1,0,0,0,0,10.0,1,1,-1.0,14.115615891155079,9.0,2.302585092994046,2.0,1.0986122886681096
156,41.8851542,-87.62231829999998,Chicago,Brickfish,1,2005-11-01,,2010-07-16,2010-07-16,4.7068,4.7068,2.989,6.863,17,1,2,0,0,0,0,1,software,1,0,0,0,0,0,0,0,0,0,0,0,1,0,0,0,1.0,1,1,-1.0,13.75391383881429,1.0,0.6931471805599453,17.0,2.8903717578961645
157,42.360253,-71.058291,Boston,MyEnergy,1,2007-06-04,,2009-02-01,2011-02-03,1.6658,3.6712,3.6658,3.6712,12,2,3,0,0,1,0,0,web,0,1,0,0,0,0,0,0,0,0,0,1,1,0,0,0,3.0,1,1,-1.0,15.201805169084134,3.0,1.3862943611198906,12.0,2.5649493574615367
158,37.36883,-122.03635,Sunnyvale,LikeList,0,2008-01-01,2012-12-06,2009-12-15,2009-12-15,1.9562,1.9562,1.0027,1.0027,5,1,1,1,0,0,0,0,web,0,1,0,0,0,0,0,0,0,0,0,0,1,0,0,0,1.0,0,0,4409.0,15.424948670398354,1.0,0.6931471805599453,5.0,1.791759469228055
159,38.881717,-77.089398,Arlington,Social Collective,0,2009-04-17,2012-03-06,2009-04-18,2009-04-18,0.0027,0.0027,0.5836,0.5836,3,1,1,0,0,0,0,1,web,0,1,0,0,0,0,0,0,0,0,0,1,0,0,0,0,1.0,0,0,4684.0,9.90353755128617,1.0,0.6931471805599453,3.0,1.3862943611198906
160,47.60732,-122.335746,Seattle,Pure Networks,1,2002-01-01,,2006-01-11,2006-01-11,4.0301,4.0301,3.0027,3.0027,5,1,1,0,0,0,0,1,network_hosting,0,0,0,0,0,0,0,0,0,1,0,0,0,1,0,0,3.0,1,1,-1.0,16.341239282272525,3.0,1.3862943611198906,5.0,1.791759469228055
161,39.568064,-104.977831,Centennial,Internet Pawn,0,2009-01-01,2013-03-01,2010-05-05,2013-08-27,1.3397,4.6548,1.3589,1.3753,0,5,2,0,0,0,0,1,finance,0,0,0,0,0,0,0,0,0,1,1,0,1,0,0,0,2.0,1,0,4324.0,15.793570463292529,2.0,1.0986122886681096,0.0,0.0
162,41.940611,-87.835972,Chicago,NeuroTherapeutics Pharma,0,2006-01-01,2013-06-01,2010-05-20,2011-12-15,4.3836,5.9562,5.4986,5.4986,5,2,1,0,0,0,0,1,biotech,0,0,0,0,0,0,0,1,0,0,1,0,0,1,0,0,4.0,1,0,4232.0,17.822843761378564,4.0,1.6094379124341003,5.0,1.791759469228055
163,37.560155,-122.285588,San Mateo,Provade,1,2004-01-01,,2006-01-23,2010-08-11,2.063,6.6137,0.0,0.0,5,4,0,1,0,0,0,0,enterprise,0,0,0,1,0,0,0,0,0,0,1,0,1,0,1,0,1.0,1,1,-1.0,16.535489395807907,1.0,0.6931471805599453,5.0,1.791759469228055
164,37.404788,-121.940842,San Jose,Infineta Systems,0,2008-01-01,2012-01-01,2010-05-07,2011-06-06,2.3479,3.4301,2.3562,4.0027,4,2,2,1,0,0,0,0,software,1,0,0,0,0,0,0,0,0,0,0,0,1,1,0,0,2.5,1,0,4749.0,17.216707972959764,2.5,1.252762968495368,4.0,1.6094379124341003
165,30.268236,-97.740651,Austin,Challenge Games,1,2006-01-01,,2008-07-10,2008-09-01,2.5233,2.6685,3.0027,4.4247,11,2,3,0,0,0,1,0,network_hosting,0,0,0,0,0,0,0,0,0,1,0,0,1,1,0,0,1.5,1,1,-1.0,16.489659276356317,1.5,0.9162907318741551,11.0,2.4849066497880004
166,37.758229,-122.439512,San Francisco,Crowd Factory,1,2009-01-01,,2011-01-26,2011-01-26,2.0685,2.0685,2.5808,4.3671,6,1,3,1,0,0,0,0,advertising,0,0,0,0,1,0,0,0,0,0,1,0,0,0,0,0,3.0,1,1,-1.0,15.687312888712007,3.0,1.3862943611198906,6.0,1.9459101490553132
167,35.149021999999995,-90.05162800000002,Memphis,Friendsignia,0,2012-01-29,2013-06-01,2012-01-29,2012-01-29,0.0,0.0,0.0,0.0,2,1,1,0,0,0,0,1,web,0,1,0,0,0,0,0,0,0,0,0,1,0,0,0,0,1.0,0,0,4232.0,9.61587214452889,1.0,0.6931471805599453,2.0,1.0986122886681096
168,40.730646,-73.986614,New York,Vizibility,1,2009-07-01,,2010-03-24,2013-02-06,0.7288,3.6055,1.589,4.1041,5,5,3,0,1,0,0,0,mobile,0,0,1,0,0,0,0,0,0,0,1,1,0,0,0,0,3.0,1,1,-1.0,15.364329936063411,3.0,1.3862943611198906,5.0,1.791759469228055
169,37.5783263,-122.3485679,Burlingame,OpenFeint,1,2008-01-01,,2010-10-21,2010-10-21,2.8055,2.8055,3.0027,4.6493,6,1,2,1,0,0,0,0,games_video,0,0,0,0,0,1,0,0,0,0,1,0,0,0,0,0,1.0,1,1,-1.0,14.914123179965662,1.0,0.6931471805599453,6.0,1.9459101490553132
170,40.743808,-73.983626,New York,Tumblr,1,2007-02-01,,2007-10-31,2012-01-01,0.7452,4.9178,3.0438,6.8411,30,6,5,0,1,0,0,0,web,0,1,0,0,0,0,0,0,0,0,1,0,1,1,1,1,3.5,1,1,-1.0,18.64582230591328,3.5,1.5040773967762742,30.0,3.4339872044851463
171,40.730646,-73.986614,New York,Hotlist,0,2008-01-01,2013-05-01,2008-05-01,2012-01-01,0.3315,4.0027,2.3644,3.6685,8,4,3,0,1,0,0,0,social,0,0,0,0,0,0,0,0,0,1,1,1,0,0,0,0,1.0,1,0,4263.0,14.187073424741348,1.0,0.6931471805599453,8.0,2.1972245773362196
172,42.3751,-71.105616,Cambridge,Crashlytics,1,2011-02-01,,2011-10-13,2012-04-10,0.6959,1.189,0.6629999999999999,2.6247,5,2,3,0,0,1,0,0,mobile,0,0,1,0,0,0,0,0,0,0,0,1,1,0,0,0,6.0,1,1,-1.0,15.607270193858982,6.0,1.9459101490553132,5.0,1.791759469228055
173,45.006515,-93.46651,Plymouth,BridgePoint Medical,1,2005-01-01,,2007-01-23,2011-03-25,2.0603,6.2301,0.0,0.0,7,3,0,0,0,0,0,1,medical,0,0,0,0,0,0,0,0,0,1,1,0,0,1,1,0,3.0,1,1,-1.0,17.154832571369333,3.0,1.3862943611198906,7.0,2.0794415416798357
174,37.777741,-122.412198,San Francisco,Recurve,1,2005-08-01,,2008-09-23,2010-06-17,3.1479,4.8795,5.0027,5.0027,5,2,1,1,0,0,0,0,software,1,0,0,0,0,0,0,0,0,0,1,0,1,0,0,0,2.0,1,1,-1.0,16.454567959008102,2.0,1.0986122886681096,5.0,1.791759469228055
175,30.35504,-97.801083,Austin,Conformity,0,2007-07-01,2009-01-01,2009-01-28,2009-01-28,1.5808,1.5808,2.2521,2.5342,14,1,2,0,0,0,1,0,enterprise,0,0,0,1,0,0,0,0,0,0,0,0,1,0,0,0,1.0,0,0,5844.0,14.914123179965662,1.0,0.6931471805599453,14.0,2.70805020110221
176,39.78373,-100.445882,Seattle,Moprise,0,2010-01-01,2013-07-01,2011-07-08,2011-10-07,1.5151,1.7644,0.7479,0.7479,6,2,1,0,0,0,0,1,enterprise,0,0,0,1,0,0,0,0,0,0,1,1,0,0,0,0,1.0,1,0,4202.0,14.62111818988233,1.0,0.6931471805599453,6.0,1.9459101490553132
177,37.779281,-122.419236,San Francisco,Plizy,0,2010-09-01,2013-06-01,2011-05-19,2012-12-13,0.7123,2.2849,1.9507,2.2822,5,2,2,1,0,0,0,0,photo_video,0,0,0,0,0,0,0,0,0,1,1,0,1,0,0,0,1.0,1,0,4232.0,15.46416937585933,1.0,0.6931471805599453,5.0,1.791759469228055
178,40.0708709,-75.302716,Conshohocken,ShopRunner,1,2010-01-01,,2013-08-19,2013-08-19,3.6329,3.6329,1.1479,3.7781,4,1,4,0,0,0,0,1,ecommerce,0,0,0,0,0,0,1,0,0,0,1,0,0,0,0,0,1.0,0,1,-1.0,18.132998684833918,1.0,0.6931471805599453,4.0,1.6094379124341003
179,42.296111,-71.238524,Needham,RatePoint,0,2006-09-01,2012-02-02,2007-01-29,2010-08-20,0.411,3.9699,4.2521,5.7671,13,4,4,0,0,1,0,0,software,1,0,0,0,0,0,0,0,0,0,0,0,1,1,1,0,2.5,1,0,4717.0,17.01418371633128,2.5,1.252762968495368,13.0,2.639057329615259
180,33.63776,-117.855989,Newport Beach,Digital Performance,0,2002-01-01,2012-10-01,2006-11-27,2010-02-05,4.9068,8.1014,0.0,0.0,3,3,0,1,0,0,0,0,advertising,0,0,0,0,1,0,0,0,0,0,1,0,1,0,0,0,2.0,1,0,4475.0,15.314278774842762,2.0,1.0986122886681096,3.0,1.3862943611198906
181,30.2729209,-97.7443863,Austin,Gowalla,1,2007-08-28,,2008-02-27,2010-01-28,0.5014,2.4219,2.8192,5.8849,21,3,3,0,0,0,1,0,web,0,1,0,0,0,0,0,0,0,0,0,0,1,1,0,0,6.0,1,1,-1.0,16.157316556419275,6.0,1.9459101490553132,21.0,3.091042453358316
182,40.138979,-105.124465,Longmont,Copan Systems,1,2002-01-01,,2006-03-08,2009-02-17,4.1836,7.1342,5.0027,5.0027,8,3,1,0,0,0,0,1,network_hosting,0,0,0,0,0,0,0,0,0,1,1,0,0,0,1,1,6.5,1,1,-1.0,18.04088339721266,6.5,2.0149030205422647,8.0,2.1972245773362196
183,37.512318,-122.20091399999998,Redwood City,Replay Solutions,1,2004-01-01,,2006-12-05,2008-08-18,2.9288,4.6329,0.0,0.0,13,2,0,1,0,0,0,0,software,1,0,0,0,0,0,0,0,0,0,0,0,1,1,0,0,2.0,1,1,-1.0,16.536806051605975,2.0,1.0986122886681096,13.0,2.639057329615259
184,40.728425,-73.999882,New York,Turf Geography Club,0,2011-01-01,2013-02-01,2011-08-15,2012-08-02,0.6192,1.5863,0.0,0.0,2,2,0,0,1,0,0,0,mobile,0,0,1,0,0,0,0,0,0,0,0,1,0,0,0,0,3.0,1,0,4352.0,13.698977865303197,3.0,1.3862943611198906,2.0,1.0986122886681096
185,37.779281,-122.419236,San Francisco,skyrockit,0,2001-01-01,2012-04-01,2011-07-12,2011-07-12,10.5315,10.5315,0.0,0.0,0,1,0,1,0,0,0,0,mobile,0,0,1,0,0,0,0,0,0,0,1,0,0,0,0,0,1.0,1,0,4658.0,14.77102238760702,1.0,0.6931471805599453,0.0,0.0
186,41.800255,-88.149362,Naperville,Cartavi,1,2009-01-01,,2012-11-13,2012-11-13,3.8685,3.8685,3.8301,4.0877,7,1,2,0,0,0,0,1,enterprise,0,0,0,1,0,0,0,0,0,0,0,1,0,0,0,0,1.0,1,1,-1.0,14.019488415097335,1.0,0.6931471805599453,7.0,2.0794415416798357
187,34.147047,-118.148896,Pasadena,Cramster,1,2002-01-01,,2008-09-25,2010-04-14,6.737,8.2877,6.7534,6.7534,5,2,1,1,0,0,0,0,web,0,1,0,0,0,0,0,0,0,0,0,0,1,1,0,0,1.0,0,1,-1.0,16.012735246411598,1.0,0.6931471805599453,5.0,1.791759469228055
188,37.317847,-121.948469,San Jose,Certify Data Systems,1,2004-01-01,,2008-08-25,2012-02-15,4.6521,8.1288,6.0055,6.0055,4,4,1,1,0,0,0,0,enterprise,0,0,0,1,0,0,0,0,0,0,1,0,1,1,0,0,1.0,0,1,-1.0,15.791008773742771,1.0,0.6931471805599453,4.0,1.6094379124341003
189,37.779281,-122.419236,San Francisco,Wheelz,1,2011-01-01,,2011-09-28,2012-02-22,0.7397,1.1425,0.5808,0.5808,15,2,1,1,0,0,0,0,automotive,0,0,0,0,0,0,0,0,0,1,0,0,1,0,0,0,3.0,1,1,-1.0,16.5691713340128,3.0,1.3862943611198906,15.0,2.772588722239781
190,42.37564,-71.2358,Waltham,CentrePath,1,2000-01-01,,2005-09-06,2006-04-24,5.6849,6.3151,5.0055,5.0055,4,2,1,0,0,1,0,0,software,1,0,0,0,0,0,0,0,0,0,1,0,0,0,1,0,2.5,1,1,-1.0,16.52688861560434,2.5,1.252762968495368,4.0,1.6094379124341003
191,37.8093381,-122.4166061,San Francisco,VoxPop Network Corporation,1,2006-08-01,,2007-05-01,2009-05-01,0.7479,2.7507,1.5836,4.5315,5,2,2,1,0,0,0,0,games_video,0,0,0,0,0,1,0,0,0,0,0,0,1,1,0,0,3.0,1,1,-1.0,15.068273812173887,3.0,1.3862943611198906,5.0,1.791759469228055
192,37.43841079999999,-121.9240273,Milpitas,OpVista,0,2000-01-01,2009-08-01,2006-06-22,2007-05-07,6.4767,7.3507,5.0055,5.0055,2,2,1,1,0,0,0,0,software,1,0,0,0,0,0,0,0,0,0,0,0,0,0,1,1,1.0,1,0,5632.0,17.57671069691365,1.0,0.6931471805599453,2.0,1.0986122886681096
193,37.775196,-122.419204,San Francisco,Metaweb Technologies,1,2005-01-01,,2006-03-01,2008-01-15,1.1616,3.0384,3.2658,5.5397,7,2,2,1,0,0,0,0,web,0,1,0,0,0,0,0,0,0,0,0,0,1,1,0,0,3.5,1,1,-1.0,17.858561843342684,3.5,1.5040773967762742,7.0,2.0794415416798357
194,37.78811500000001,-122.397141,San Francisco,DocVerse,1,2007-09-01,,2008-07-23,2008-07-23,0.8932,0.8932,0.8329,4.2137,8,1,4,1,0,0,0,0,web,0,1,0,0,0,0,0,0,0,0,0,1,0,0,0,0,4.0,1,1,-1.0,14.077875591662238,4.0,1.6094379124341003,8.0,2.1972245773362196
195,32.902266,-117.20834,San Diego,Veoh,1,2004-01-01,,2005-07-01,2008-06-03,1.4986,4.4247,4.0877,9.737,15,4,4,1,0,0,0,0,games_video,0,0,0,0,0,1,0,0,0,0,0,0,1,1,1,1,5.0,1,1,-1.0,18.060427993002666,5.0,1.791759469228055,15.0,2.772588722239781
196,42.341899,-71.065924,Boston,BzzAgent,1,2001-01-01,,2004-01-01,2006-01-01,3.0,5.0027,9.6247,10.3945,16,2,2,0,0,1,0,0,advertising,0,0,0,0,1,0,0,0,0,0,0,1,0,1,0,0,2.0,1,1,-1.0,16.489659276356317,2.0,1.0986122886681096,16.0,2.833213344056216
197,37.40006,-122.049689,Mountain View,Hammerhead Systems,0,2002-01-01,2009-03-23,2006-01-31,2007-08-01,4.0849,5.5836,0.0,0.0,2,2,0,1,0,0,0,0,hardware,0,0,0,0,0,0,0,0,0,1,0,0,0,0,1,1,6.0,1,0,5763.0,17.6867115897055,6.0,1.9459101490553132,2.0,1.0986122886681096
198,40.418851,-79.904163,Pittsburgh,ThermalTherapeuticSystems,0,2006-06-01,2013-03-13,2009-12-01,2011-11-09,3.5041,5.4438,0.0,0.0,3,2,0,0,0,0,0,1,medical,0,0,0,0,0,0,0,0,0,1,1,0,1,0,0,0,3.0,1,0,4312.0,15.070688607801571,3.0,1.3862943611198906,3.0,1.3862943611198906
199,37.778613,-122.395289,San Mateo,GuardianEdge Technologies,1,2002-01-01,,2005-06-06,2007-07-23,3.4301,5.5589,7.8384,7.8384,10,3,1,1,0,0,0,0,software,1,0,0,0,0,0,0,0,0,0,0,0,1,1,0,0,3.3333,1,1,-1.0,16.785925074816024,3.3333,1.4663293764561487,10.0,2.3978952727983707
200,34.019657,-118.487549,Santa Monica,Gradient X,1,2012-01-01,,2012-06-20,2012-06-20,0.4685,0.4685,1.1041,1.6795,5,1,3,1,0,0,0,0,mobile,0,0,1,0,0,0,0,0,0,0,0,0,0,0,0,0,9.0,1,1,-1.0,15.137266664613225,9.0,2.302585092994046,5.0,1.791759469228055
201,41.817807,-88.173402,Warrenville,ezzai - how to arabia,0,2010-08-01,2011-08-01,2010-08-01,2010-08-01,0.0,0.0,0.0,0.0,1,1,0,0,0,0,0,1,web,0,1,0,0,0,0,0,0,0,0,0,0,0,0,0,0,2.0,0,0,4902.0,17.622173069956816,2.0,1.0986122886681096,1.0,0.6931471805599453
202,35.79181,-78.74123,Raleigh,rPath,0,2005-04-01,2013-05-01,2006-01-24,2010-10-22,0.8164,5.5616,4.5562,7.9863,8,4,3,0,0,0,0,1,enterprise,0,0,0,1,0,0,0,0,0,0,0,0,1,1,1,1,2.75,1,0,4263.0,17.296750678069195,2.75,1.3217558399823195,8.0,2.1972245773362196
203,40.063476,-75.457492,Berwyn,Boomi,1,2000-03-01,,2002-01-01,2008-07-01,1.8384,8.3397,5.674,13.5562,4,2,5,0,0,0,0,1,enterprise,0,0,0,1,0,0,0,0,0,0,0,1,0,1,0,0,1.5,1,1,-1.0,15.404745967162468,1.5,0.9162907318741551,4.0,1.6094379124341003
204,37.382376,-122.037607,Sunnyvale,VoloMedia,0,2005-01-01,2011-02-03,2007-04-20,2008-03-18,2.2986,3.2110000000000003,3.5945,4.5753,4,2,3,1,0,0,0,0,advertising,0,0,0,0,1,0,0,0,0,0,0,0,0,1,1,0,2.0,1,0,5081.0,16.300417291085605,2.0,1.0986122886681096,4.0,1.6094379124341003
205,37.76690900000001,-122.406676,San Francisco,Flixster,1,2006-01-20,,2006-02-01,2008-04-04,0.0329,2.2055,4.5151,6.9123,12,3,6,1,0,0,0,0,web,0,1,0,0,0,0,0,0,0,0,0,1,1,1,0,0,2.6667,1,1,-1.0,15.786113458982772,2.6667,1.2992920749980297,12.0,2.5649493574615367
206,37.793148,-122.402567,San Francisco,Wesabe,0,2005-12-01,2010-06-30,2007-02-01,2007-06-01,1.1699,1.4986,0.0849,5.3863,3,2,4,1,0,0,0,0,web,0,1,0,0,0,0,0,0,0,0,0,1,1,0,0,0,1.5,1,0,5299.0,15.363073279446223,1.5,0.9162907318741551,3.0,1.3862943611198906
207,26.0524615,-80.1378809,Morgan Hill,OfferLounge,0,2008-01-01,2010-05-01,2008-01-01,2008-01-01,0.0,0.0,0.0,0.0,3,1,0,1,0,0,0,0,public_relations,0,0,0,0,0,0,0,0,0,1,0,1,0,0,0,0,2.0,0,0,5359.0,11.695255355062795,2.0,1.0986122886681096,3.0,1.3862943611198906
208,37.393679,-122.079017,Mountain View,NeoEdge Networks,1,2002-05-02,,2007-06-08,2010-12-20,5.1041,8.6411,5.6712,6.8986,10,3,2,1,0,0,0,0,advertising,0,0,0,0,1,0,0,0,0,0,1,0,0,1,0,0,1.6667,0,1,-1.0,16.118095750958314,1.6667,0.980841752933602,10.0,2.3978952727983707
209,30.435079,-97.770139,Austin,SemiSouth Laboratories,0,2000-07-01,2013-06-01,2005-06-14,2010-10-22,4.9562,10.3151,0.0,0.0,0,4,0,0,0,0,1,0,semiconductor,0,0,0,0,0,0,0,0,0,1,1,0,1,0,0,0,3.0,0,0,4232.0,17.479072229734946,3.0,1.3862943611198906,0.0,0.0
210,42.345927,-71.55228699999998,Marlborough,Camiant,1,2003-01-01,,2005-03-29,2007-01-11,2.2411,4.0301,0.0,0.0,3,2,0,0,0,1,0,0,software,1,0,0,0,0,0,0,0,0,0,0,0,0,1,1,0,2.5,1,1,-1.0,16.59432989206649,2.5,1.252762968495368,3.0,1.3862943611198906
211,37.795191,-122.430411,San Francisco,NuConomy,1,2006-01-01,,2007-04-01,2008-02-01,1.2466,2.0849,2.4986,5.3233,4,2,3,1,0,0,0,0,advertising,0,0,0,0,1,0,0,0,0,0,0,1,1,0,0,0,2.0,1,1,-1.0,15.009433329466965,2.0,1.0986122886681096,4.0,1.6094379124341003
212,37.779281,-122.419236,San Francisco,Flowtown,1,2009-02-01,,2010-08-25,2010-08-25,1.5616,1.5616,1.2438,1.7726,6,1,3,1,0,0,0,0,analytics,0,0,0,0,0,0,0,0,0,1,0,1,0,0,0,0,9.0,1,1,-1.0,13.527829818844937,9.0,2.302585092994046,6.0,1.9459101490553132
213,33.776834,-84.3895875,Atlanta,GlobalCrypto,0,2006-06-01,2012-07-06,2008-11-11,2008-11-11,2.4493,2.4493,0.0,0.0,0,2,0,0,0,0,0,1,software,1,0,0,0,0,0,0,0,0,0,1,1,0,0,0,0,2.0,0,0,4562.0,13.815511557963774,2.0,1.0986122886681096,0.0,0.0
214,40.730646,-73.986614,New York,Bioenvision,0,1996-01-01,2009-08-13,2007-04-30,2007-04-30,11.3342,11.3342,0.0,0.0,3,1,0,0,1,0,0,0,biotech,0,0,0,0,0,0,0,1,0,0,1,0,0,0,0,0,3.0,1,0,5620.0,15.818341132225028,3.0,1.3862943611198906,3.0,1.3862943611198906
215,37.404788,-121.940842,San Jose,Teranetics,1,2000-01-01,,2006-11-21,2010-05-27,6.8932,10.4082,0.0,0.0,5,3,0,1,0,0,0,0,semiconductor,0,0,0,0,0,0,0,0,0,1,1,0,0,0,1,0,5.3333,1,1,-1.0,17.782021767615884,5.3333,1.8458214273265856,5.0,1.791759469228055
216,33.97279,-118.427578,Playa Vista,WebVisible,0,2001-01-01,2011-10-01,2005-09-01,2010-02-11,4.6685,9.1178,9.7534,12.8027,33,3,4,1,0,0,0,0,software,1,0,0,0,0,0,0,0,0,0,0,0,1,1,1,0,1.3333,1,0,4841.0,17.426428497635523,1.3333,0.8472835745708761,33.0,3.5263605246161616
217,37.7983181,-122.4000032,San Francisco,GoodGuide,1,2007-12-01,,2009-01-19,2011-08-26,1.137,3.737,2.463,3.2164,14,3,3,1,0,0,0,0,web,0,1,0,0,0,0,0,0,0,0,0,0,1,1,0,0,3.0,1,1,-1.0,16.470862899791964,3.0,1.3862943611198906,14.0,2.70805020110221
218,37.320309,-122.05004,Cupertino,ViVu,1,2009-01-01,,2009-09-21,2011-06-09,0.7205,2.4356,0.7671,2.7918,7,2,2,1,0,0,0,0,messaging,0,0,0,0,0,0,0,0,0,1,0,0,1,1,0,0,2.5,1,1,-1.0,14.914123179965662,2.5,1.252762968495368,7.0,2.0794415416798357
219,40.730646,-73.986614,New York,avVenta,1,2005-01-01,,2009-01-14,2009-01-14,4.0384,4.0384,6.0027,6.0027,10,1,1,0,1,0,0,0,advertising,0,0,0,0,1,0,0,0,0,0,0,0,1,0,0,0,1.0,0,1,-1.0,16.811242881518265,1.0,0.6931471805599453,10.0,2.3978952727983707
220,51.43247,-2.664213,Providence,DiJiPOP,1,2008-11-01,,2009-08-01,2010-12-06,0.7479,2.0959,1.6548,2.0959,6,2,3,0,0,0,0,1,advertising,0,0,0,0,1,0,0,0,0,0,0,1,0,0,0,0,1.5,1,1,-1.0,14.508658238524095,1.5,0.9162907318741551,6.0,1.9459101490553132
221,38.897976,-77.028561,Washington,Layer 7 Technologies,1,2003-01-01,,2006-10-26,2009-02-02,3.8192,6.0932,9.0055,9.7726,3,2,2,0,0,0,0,1,software,1,0,0,0,0,0,0,0,0,0,1,0,0,1,0,0,2.0,1,1,-1.0,16.806230339945976,2.0,1.0986122886681096,3.0,1.3862943611198906
222,37.781689,-122.391061,San Francisco,DeliveryEdge,0,2006-09-01,2009-04-01,2007-12-01,2007-12-01,1.2493,1.2493,2.589,2.589,6,1,1,1,0,0,0,0,ecommerce,0,0,0,0,0,0,1,0,0,0,0,0,0,0,0,0,1.0,0,0,5754.0,14.220976332738882,1.0,0.6931471805599453,6.0,1.9459101490553132
223,37.779281,-122.419236,San Francisco,Solmentum,0,2009-07-01,2011-11-09,2009-07-01,2009-07-01,0.0,0.0,1.2521,1.2521,4,1,1,1,0,0,0,0,cleantech,0,0,0,0,0,0,0,0,0,1,0,1,0,0,0,0,4.0,0,0,4802.0,12.691583538230217,4.0,1.6094379124341003,4.0,1.6094379124341003
224,37.787249,-122.3990501,San Francisco,Pipewise,0,2010-09-01,2012-10-01,2011-02-17,2011-02-17,0.463,0.463,1.2795,1.8192,16,1,2,1,0,0,0,0,enterprise,0,0,0,1,0,0,0,0,0,0,0,0,1,0,0,0,5.0,1,0,4475.0,15.068273812173887,5.0,1.791759469228055,16.0,2.833213344056216
225,47.602873,-122.336132,Seattle,GridNetworks,0,2004-01-01,2012-08-17,2006-01-01,2008-05-20,2.0027,4.3863,1.5836,4.1918,7,4,2,0,0,0,0,1,network_hosting,0,0,0,0,0,0,0,0,0,1,0,1,1,1,0,0,2.0,1,0,4520.0,17.216707972959764,2.0,1.0986122886681096,7.0,2.0794415416798357
226,39.78373,-100.445882,Mountain View,MAP Pharmaceuticals,1,2003-01-01,,2007-03-28,2007-03-28,4.2384,4.2384,0.0,0.0,1,1,0,1,0,0,0,0,biotech,0,0,0,0,0,0,0,1,0,0,0,0,0,0,0,1,6.0,1,1,-1.0,17.72753358339242,6.0,1.9459101490553132,1.0,0.6931471805599453
227,40.745003,-73.98322900000002,New York,"ORCA, Inc.",1,2008-01-01,,2009-06-21,2009-06-21,1.4712,1.4712,1.0027,1.4712,5,1,2,0,1,0,0,0,ecommerce,0,0,0,0,0,0,1,0,0,0,0,0,1,0,0,0,3.0,1,1,-1.0,14.508658238524095,3.0,1.3862943611198906,5.0,1.791759469228055
228,37.52845,-122.263721,Redwood City,Amobee,1,2005-05-01,,2006-11-01,2011-03-01,1.5041,5.8356,6.1699,8.3534,25,6,2,1,0,0,0,0,advertising,0,0,0,0,1,0,0,0,0,0,1,0,1,1,1,1,2.3333,1,1,-1.0,18.09217669086922,2.3333,1.2039628042759356,25.0,3.258096538021482
229,34.045919,-118.16525,Monterey Park,KOTURA,1,2004-01-01,,2005-09-07,2009-11-05,1.6849,5.8493,8.4219,8.4219,4,3,1,1,0,0,0,0,cleantech,0,0,0,0,0,0,0,0,0,1,0,0,0,1,1,1,4.5,1,1,-1.0,17.136601685489413,4.5,1.7047480922384253,4.0,1.6094379124341003
230,33.068275,-96.711101,Plano,Auvitek International,0,2004-03-01,2011-02-20,2006-05-09,2006-05-09,2.189,2.189,0.0,0.0,32,1,0,0,0,0,1,0,semiconductor,0,0,0,0,0,0,0,0,0,1,0,0,0,1,0,0,4.0,1,0,5064.0,16.012735246411598,4.0,1.6094379124341003,32.0,3.4965075614664802
231,37.287285,-121.942932,Mountain View,Outright,1,2008-06-01,,2008-11-01,2009-11-18,0.4192,1.4658,3.1315,4.137,12,2,3,1,0,0,0,0,enterprise,0,0,0,1,0,0,0,0,0,0,0,0,1,0,0,0,3.5,1,1,-1.0,15.830413711839864,3.5,1.5040773967762742,12.0,2.5649493574615367
232,30.271393,-97.748623,Austin,Phurnace Software,1,2007-01-01,,2007-09-11,2008-07-01,0.6932,1.4986,3.4164,3.4164,9,2,1,0,0,0,1,0,software,1,0,0,0,0,0,0,0,0,0,0,0,1,0,0,0,2.0,1,1,-1.0,16.118095750958314,2.0,1.0986122886681096,9.0,2.302585092994046
233,34.142973,-118.140553,Pasadena,FastSoft,1,2006-01-01,,2007-06-11,2012-09-04,1.4411,6.6795,2.0,2.0,7,4,1,1,0,0,0,0,software,1,0,0,0,0,0,0,0,0,0,1,0,1,0,0,0,1.0,0,1,-1.0,15.601419781158732,1.0,0.6931471805599453,7.0,2.0794415416798357
234,37.465645,-121.932202,Fremont,GrandCentral,1,2006-04-01,,2006-01-01,2006-01-01,-0.2466,-0.2466,-0.4082,7.4548,9,1,4,1,0,0,0,0,mobile,0,0,1,0,0,0,0,0,0,0,0,0,1,0,0,0,1.0,0,1,-1.0,15.201805169084134,1.0,0.6931471805599453,9.0,2.302585092994046
235,42.548008,-83.214753,Bingham Farms,Speedshape,0,2003-01-01,2013-08-01,2008-02-20,2008-02-20,5.1397,5.1397,7.0055,7.0055,2,1,1,0,0,0,0,1,advertising,0,0,0,0,1,0,0,0,0,0,1,0,0,0,0,0,1.0,0,0,4171.0,15.424948670398354,1.0,0.6931471805599453,2.0,1.0986122886681096
236,37.32052,-121.948399,San Jose,BlueLithium,1,2004-01-01,,2005-02-01,2005-02-01,1.0877,1.0877,5.0959,7.3863,15,1,2,1,0,0,0,0,advertising,0,0,0,0,1,0,0,0,0,0,0,0,1,0,0,0,2.0,1,1,-1.0,16.257857680289998,2.0,1.0986122886681096,15.0,2.772588722239781
237,41.875555,-87.624421,Chicago,Media Chaperone,0,2009-01-01,2013-06-01,2010-01-14,2011-02-24,1.0356,2.1479,1.5808,1.5808,2,2,1,0,0,0,0,1,web,0,1,0,0,0,0,0,0,0,0,1,0,0,0,0,0,1.0,0,0,4232.0,13.864301674514206,1.0,0.6931471805599453,2.0,1.0986122886681096
238,40.7566658,-73.9827553,New York,Giant Realm,1,2007-01-01,,2008-03-01,2008-05-08,1.1644,1.3507,1.3507,3.3315,13,2,2,0,1,0,0,0,web,0,1,0,0,0,0,0,0,0,0,0,0,1,0,0,0,2.0,1,1,-1.0,15.520258832020865,2.0,1.0986122886681096,13.0,2.639057329615259
239,39.951311,-75.169522,Philadelphia,Invite Media,1,2007-02-01,,2007-12-01,2009-12-01,0.8301,2.8329,1.0877,3.337,17,3,4,0,0,0,0,1,advertising,0,0,0,0,1,0,0,0,0,0,0,1,1,0,0,0,1.6667,1,1,-1.0,15.424948670398354,1.6667,0.980841752933602,17.0,2.8903717578961645
240,37.406914,-122.09037,Mountain View,UpMo,0,2011-01-01,2013-07-01,2009-12-13,2011-08-17,-1.0521,0.6247,-1.3589,1.663,11,2,3,1,0,0,0,0,enterprise,0,0,0,1,0,0,0,0,0,0,1,0,0,0,0,0,3.0,0,0,4202.0,15.123843647884687,3.0,1.3862943611198906,11.0,2.4849066497880004
241,36.9397206,-121.7768449,Freedom,Appscio,0,2006-01-01,2011-01-01,2007-03-20,2009-01-03,1.2137,3.0082,0.0,0.0,4,2,0,1,0,0,0,0,software,1,0,0,0,0,0,0,0,0,0,0,0,1,0,0,0,2.0,0,0,5114.0,15.76142084987672,2.0,1.0986122886681096,4.0,1.6094379124341003
242,42.375219,-71.056101,Boston,Eons,0,2005-01-01,2012-05-17,2006-04-01,2007-03-01,1.2466,2.1616,2.0,3.8137,14,2,4,0,0,1,0,0,network_hosting,0,0,0,0,0,0,0,0,0,1,0,0,1,1,0,0,3.5,1,0,4612.0,17.281246492014,3.5,1.5040773967762742,14.0,2.70805020110221
243,42.358822,-71.104329,Cambridge,LocaModa,1,2007-01-01,,2007-09-18,2011-03-25,0.7123,4.2301,2.6685,3.0575,8,3,2,0,0,1,0,0,advertising,0,0,0,0,1,0,0,0,0,0,0,0,1,0,0,0,2.0,0,1,-1.0,15.882373444019521,2.0,1.0986122886681096,8.0,2.1972245773362196
244,37.392443,-122.072517,San Francisco,Meraki,1,2006-04-01,,2006-12-01,2012-07-10,0.6685,6.2795,2.7945,7.4493,16,5,3,1,0,0,0,0,network_hosting,0,0,0,0,0,0,0,0,0,1,0,1,1,1,1,1,2.25,1,1,-1.0,18.197537205138154,2.25,1.1786549963416462,16.0,2.833213344056216
245,30.280148,-97.749908,Austin,MPOWER Mobile,0,2005-01-01,2012-06-08,2009-10-28,2009-10-28,4.8247,4.8247,0.2466,0.2466,1,1,1,0,0,0,1,0,mobile,0,0,1,0,0,0,0,0,0,0,1,0,0,0,0,0,1.0,1,0,4590.0,15.424948670398354,1.0,0.6931471805599453,1.0,0.6931471805599453
246,47.638456,-122.356965,Seattle,Haute Secure,1,2006-01-01,,2007-01-01,2009-03-09,1.0,3.1863,2.4301,7.6247,5,2,3,0,0,0,0,1,security,0,0,0,0,0,0,0,0,0,1,0,1,1,0,0,0,1.5,1,1,-1.0,14.557448378884015,1.5,0.9162907318741551,5.0,1.791759469228055
247,39.116333,-77.18130699999998,Bethesda,Intelliworks,1,2004-12-01,,2005-02-14,2009-04-24,0.2055,4.3973,3.4164,3.4164,6,4,1,0,0,0,0,1,enterprise,0,0,0,1,0,0,0,0,0,0,0,0,1,1,1,1,2.5,1,1,-1.0,16.917852611520342,2.5,1.252762968495368,6.0,1.9459101490553132
248,45.520247,-122.674195,Portland,Meridian,1,2011-03-01,,2011-09-14,2012-08-30,0.5397,1.5014,-14.1699,2.2082,6,2,2,0,0,0,0,1,enterprise,0,0,0,1,0,0,0,0,0,0,1,1,0,0,0,0,3.0,0,1,-1.0,14.496079462646344,3.0,1.3862943611198906,6.0,1.9459101490553132
249,40.723652,-73.985281,New York,Kluster,1,2008-01-01,,2008-01-01,2008-01-01,0.0,0.0,3.5918,4.3260000000000005,0,1,2,0,1,0,0,0,web,0,1,0,0,0,0,0,0,0,0,0,1,0,0,0,0,1.0,1,1,-1.0,13.815511557963774,1.0,0.6931471805599453,0.0,0.0
250,40.602206,-75.47127900000002,Allentown,International Battery,0,2008-01-01,2013-03-01,2010-05-06,2010-05-06,2.3452,2.3452,0.0,0.0,0,1,0,0,0,0,0,1,cleantech,0,0,0,0,0,0,0,0,0,1,0,0,0,0,1,0,1.0,0,0,4324.0,17.370858648025116,1.0,0.6931471805599453,0.0,0.0
251,37.480999,-122.173887,New York,Jingle Networks,1,2005-09-01,,2005-10-01,2009-12-28,0.0822,4.3260000000000005,3.663,5.6110000000000015,12,7,5,0,1,0,0,0,mobile,0,0,1,0,0,0,0,0,0,0,1,1,1,1,1,1,3.1667,1,1,-1.0,18.300219382280847,3.1667,1.4271243556081459,12.0,2.5649493574615367
252,42.5656454,-71.3222696,North Billerica,SemEquip,1,2000-01-01,,2005-08-04,2005-08-04,5.5945,5.5945,0.0,0.0,3,1,0,0,0,1,0,0,semiconductor,0,0,0,0,0,0,0,0,0,1,1,0,0,0,0,0,2.0,1,1,-1.0,17.073607134447293,2.0,1.0986122886681096,3.0,1.3862943611198906
253,34.054935,-118.244476,Los Angeles,ItsGoinOn,0,2010-05-01,2011-11-01,2011-01-01,2011-01-01,0.6712,0.6712,0.0,0.7562,3,1,2,1,0,0,0,0,games_video,0,0,0,0,0,1,0,0,0,0,0,1,0,0,0,0,1.0,0,0,4810.0,11.51293546492023,1.0,0.6931471805599453,3.0,1.3862943611198906
254,39.750152,-104.99643799999998,Denver,mSnap,1,2005-06-01,,2006-06-01,2006-06-01,1.0,1.0,3.811,4.9178,6,1,3,0,0,0,0,1,mobile,0,0,1,0,0,0,0,0,0,0,0,0,1,0,0,0,1.0,1,1,-1.0,15.424948670398354,1.0,0.6931471805599453,6.0,1.9459101490553132
255,34.062588,-84.16923,Duluth,Biofisica,0,2000-01-01,2012-04-26,2006-10-31,2008-04-21,6.8356,8.3096,0.0,0.0,5,2,0,0,0,0,0,1,biotech,0,0,0,0,0,0,0,1,0,0,1,0,1,0,0,0,3.0,1,0,4633.0,15.803385043104912,3.0,1.3862943611198906,5.0,1.791759469228055
256,37.406914,-122.09037,Mountain View,Ardian,1,2003-01-01,,2005-01-01,2009-03-23,2.0027,6.2274,4.0027,10.7616,8,3,2,1,0,0,0,0,biotech,0,0,0,0,0,0,0,1,0,0,0,0,1,1,1,0,4.0,1,1,-1.0,17.97564287632987,4.0,1.6094379124341003,8.0,2.1972245773362196
257,51.43247,-2.664213,Providence,Tracelytics,1,2010-07-01,,2011-11-03,2012-03-22,1.3425,1.726,-0.0822,1.7205,8,2,2,0,0,0,0,1,enterprise,0,0,0,1,0,0,0,0,0,0,0,1,1,0,0,0,4.0,1,1,-1.0,15.573368647930426,4.0,1.6094379124341003,8.0,2.1972245773362196
258,37.791388,-122.392148,San Francisco,Canopy Financial,0,2004-01-01,2009-08-27,2008-01-01,2009-10-01,4.0027,5.7534,5.9233,6.0,6,4,2,1,0,0,0,0,finance,0,0,0,0,0,0,0,0,0,1,0,0,0,1,1,0,1.0,1,0,5606.0,18.309749194418266,1.0,0.6931471805599453,6.0,1.9459101490553132
259,37.788482,-122.409173,San Francisco,Kyte,1,2006-12-01,,2007-07-01,2012-03-01,0.5808,5.2521,3.0877,4.1699,11,4,2,1,0,0,0,0,games_video,0,0,0,0,0,1,0,0,0,0,0,1,1,1,0,0,3.0,1,1,-1.0,16.966107584905732,3.0,1.3862943611198906,11.0,2.4849066497880004
260,42.393662,-71.25585500000003,Waltham,Ounce Labs,1,2002-10-01,,2006-06-08,2008-09-16,3.6877,5.9644,0.0,0.0,7,2,0,0,0,1,0,0,software,1,0,0,0,0,0,0,0,0,0,1,0,0,0,1,0,2.5,1,1,-1.0,16.41820031748273,2.5,1.252762968495368,7.0,2.0794415416798357
261,42.496515,-71.480233,Boxborough,Crossbeam Systems,1,2000-01-01,,2007-05-08,2008-02-14,7.3534,8.126,11.0329,11.0575,13,2,2,0,0,1,0,0,security,0,0,0,0,0,0,0,0,0,1,0,0,0,0,0,0,5.5,1,1,-1.0,17.01418371633128,5.5,1.8718021769015913,13.0,2.639057329615259
262,37.534538,-122.252466,Redwood City,PacketHop,0,2002-01-01,2013-01-04,2005-08-08,2005-08-08,3.6027,3.6027,3.0027,3.0027,2,1,1,1,0,0,0,0,public_relations,0,0,0,0,0,0,0,0,0,1,0,0,0,0,1,0,4.0,1,0,4380.0,16.118095750958314,4.0,1.6094379124341003,2.0,1.0986122886681096
263,40.767013,-111.890431,Salt Lake City,Inaura,0,2007-01-01,2012-07-19,2005-01-06,2005-01-06,-1.9863,-1.9863,0.0,0.0,3,1,0,0,0,0,0,1,other,0,0,0,0,0,0,0,0,0,1,1,0,0,0,0,0,1.0,0,0,4549.0,15.955576839107596,1.0,0.6931471805599453,3.0,1.3862943611198906
264,30.161661,-95.471256,The Woodlands,DynaPump,0,1992-01-01,2011-11-12,2008-05-29,2008-05-29,16.4192,16.4192,0.0,0.0,0,1,0,0,0,0,1,0,cleantech,0,0,0,0,0,0,0,0,0,1,0,0,0,1,0,0,3.0,0,0,4799.0,15.607270193858982,3.0,1.3862943611198906,0.0,0.0
265,37.424298,-122.139809,Palo Alto,Immunet Corporation,1,2008-07-01,,2009-11-01,2009-11-01,1.337,1.337,1.3479,1.3479,3,1,1,1,0,0,0,0,software,1,0,0,0,0,0,0,0,0,0,0,0,1,0,0,0,2.0,1,1,-1.0,14.508658238524095,2.0,1.0986122886681096,3.0,1.3862943611198906
266,30.280148,-97.749908,Austin,CopperEgg Corporation,1,2010-06-01,,2011-07-12,2012-05-08,1.1123,1.937,0.0,1.1123,3,2,2,0,0,0,1,0,enterprise,0,0,0,1,0,0,0,0,0,0,0,0,1,0,0,0,1.5,1,1,-1.0,15.226497775576945,1.5,0.9162907318741551,3.0,1.3862943611198906
267,37.40047,-122.072981,Mountain View,Wink,1,2004-08-19,,2005-01-01,2005-01-01,0.3699,0.3699,1.9507,8.3178,5,1,4,1,0,0,0,0,search,0,0,0,0,0,0,0,0,0,1,0,0,1,0,0,0,2.0,1,1,-1.0,15.64006001130563,2.0,1.0986122886681096,5.0,1.791759469228055
268,37.767575,-122.411157,San Francisco,PopularMedia,1,2003-01-01,,2007-02-01,2008-07-28,4.0877,5.5753,4.0027,4.0027,8,2,1,1,0,0,0,0,advertising,0,0,0,0,1,0,0,0,0,0,0,0,0,1,1,0,2.5,1,1,-1.0,16.32103657658766,2.5,1.252762968495368,8.0,2.1972245773362196
269,37.779281,-122.419236,San Francisco,Miyowa,1,2003-04-14,,2006-09-04,2008-05-08,3.3945,5.0712,5.7233,8.7342,3,2,2,1,0,0,0,0,mobile,0,0,1,0,0,0,0,0,0,0,0,0,1,1,0,0,2.0,1,1,-1.0,16.277285128978708,2.0,1.0986122886681096,3.0,1.3862943611198906
270,42.504817,-71.195611,Burlington,Intrusic,0,2001-01-01,2007-02-19,2005-04-25,2006-10-30,4.3151,5.8301,0.0,0.0,1,2,0,0,0,1,0,0,software,1,0,0,0,0,0,0,0,0,0,0,0,1,1,0,0,3.0,1,0,6526.0,16.588099342704055,3.0,1.3862943611198906,1.0,0.6931471805599453
271,47.603832,-122.330062,Seattle,Dashwire,1,2006-08-11,,2009-01-31,2010-12-28,2.4767,4.3836,3.3945,4.9863,10,3,2,0,0,0,0,1,mobile,0,0,1,0,0,0,0,0,0,0,1,0,1,0,0,0,1.6667,1,1,-1.0,15.43619696816912,1.6667,0.980841752933602,10.0,2.3978952727983707
272,37.780883,-122.395257,San Francisco,Reddit,1,2005-01-01,,2005-06-01,2005-06-01,0.4137,0.4137,6.8329,8.874,9,1,3,1,0,0,0,0,web,0,1,0,0,0,0,0,0,0,0,0,1,0,0,0,0,1.0,1,1,-1.0,11.51293546492023,1.0,0.6931471805599453,9.0,2.302585092994046
273,37.779281,-122.419236,San Francisco,Pure Digital Technologies,1,2001-09-01,,2004-01-01,2008-08-18,2.3342,6.9671,4.0027,8.3014,11,3,3,1,0,0,0,0,hardware,0,0,0,0,0,0,0,0,0,1,1,1,0,0,0,0,4.0,1,1,-1.0,18.037955137476448,4.0,1.6094379124341003,11.0,2.4849066497880004
274,37.789429,-122.276524,Alameda,Voxify,1,2001-01-01,,2005-02-01,2010-04-21,4.0877,9.3068,6.0027,6.0027,5,3,1,1,0,0,0,0,enterprise,0,0,0,1,0,0,0,0,0,0,1,0,0,1,0,1,3.6667,1,1,-1.0,17.312018149733785,3.6667,1.5404521837787817,5.0,1.791759469228055
275,35.986906,-78.896718,Durham,EvoApp,0,2009-01-01,2013-01-01,2010-10-15,2012-04-20,1.7863,3.3014,2.0822,2.3288,8,3,2,0,0,0,0,1,analytics,0,0,0,0,0,0,0,0,0,1,0,1,1,0,0,0,9.5,0,0,4383.0,15.0251259131164,9.0,2.302585092994046,8.0,2.1972245773362196
276,40.750519,-73.993494,New York,Visual Revenue,1,2010-03-01,,2011-07-28,2012-01-26,1.4082,1.9068,-0.1616,1.8384,5,2,2,0,1,0,0,0,analytics,0,0,0,0,0,0,0,0,0,1,0,1,1,0,0,0,3.0,1,1,-1.0,14.609408093703827,3.0,1.3862943611198906,5.0,1.791759469228055
277,37.484347,-122.225803,Redwood City,Calibra Medical,1,2004-01-01,,2009-11-24,2011-04-15,5.9014,7.2904,0.0,0.0,1,4,0,1,0,0,0,0,biotech,0,0,0,0,0,0,0,1,0,0,1,0,0,0,0,1,5.0,1,1,-1.0,16.801192546169812,5.0,1.791759469228055,1.0,0.6931471805599453
278,37.566009,-122.321646,San Mateo,Offermatic,0,2010-02-01,2013-06-01,2010-12-01,2011-03-09,0.8301,1.0986,1.1014,1.1616,6,2,2,1,0,0,0,0,web,0,1,0,0,0,0,0,0,0,0,0,1,1,0,0,0,3.0,1,0,4232.0,15.319588176962746,3.0,1.3862943611198906,6.0,1.9459101490553132
279,42.2960173,-71.2128734,Needham,HiWired,1,2004-01-01,,2008-01-01,2008-01-02,4.0027,4.0055,4.0027,4.0027,2,2,1,0,0,1,0,0,software,1,0,0,0,0,0,0,0,0,0,1,0,0,1,0,0,1.5,1,1,-1.0,16.454567959008102,1.5,0.9162907318741551,2.0,1.0986122886681096
280,26.106273,-80.41894,Weston,DateMyFamily.com,0,2011-11-11,2013-01-01,2011-12-01,2011-12-01,0.0548,0.0548,0.0685,0.4,4,1,2,0,0,0,0,1,social,0,0,0,0,0,0,0,0,0,1,0,1,0,0,0,0,1.0,0,0,4383.0,11.51293546492023,1.0,0.6931471805599453,4.0,1.6094379124341003
281,37.4027811,-122.1441615,Palo Alto,Hyperic,1,2004-01-01,,2006-05-10,2007-06-05,2.3562,3.4274,3.0027,5.3425,4,2,2,1,0,0,0,0,software,1,0,0,0,0,0,0,0,0,0,0,0,1,1,0,0,2.0,1,1,-1.0,16.108045416114916,2.0,1.0986122886681096,4.0,1.6094379124341003
282,37.779281,-122.419236,San Francisco,Optimal,1,2008-01-01,,2008-01-01,2013-01-22,0.0,5.063,5.0055,5.7945,10,3,2,1,0,0,0,0,advertising,0,0,0,0,1,0,0,0,0,0,0,0,1,1,0,0,5.0,1,1,-1.0,15.843658936835498,5.0,1.791759469228055,10.0,2.3978952727983707
283,34.430786,-119.715074,Santa Barbara,SendMeHome.com,0,2008-07-01,2012-06-04,2008-07-01,2008-07-01,0.0,0.0,0.737,0.737,2,1,1,1,0,0,0,0,games_video,0,0,0,0,0,1,0,0,0,0,0,1,0,0,0,0,2.0,0,0,4594.0,10.819798284210286,2.0,1.0986122886681096,2.0,1.0986122886681096
284,37.448944,-122.161415,Palo Alto,Q-magic,0,2007-02-01,2011-11-29,2007-01-01,2007-01-01,-0.0849,-0.0849,0.0,0.0,3,1,0,1,0,0,0,0,public_relations,0,0,0,0,0,0,0,0,0,1,0,1,0,0,0,0,1.0,0,0,4782.0,13.384729180332174,1.0,0.6931471805599453,3.0,1.3862943611198906
285,34.005914000000004,-118.488129,Los Angeles,Geodelic Systems,0,2008-01-01,2011-01-01,2008-12-01,2010-09-23,0.9178,2.7288,2.4164,2.7288,8,3,3,1,0,0,0,0,mobile,0,0,1,0,0,0,0,0,0,0,1,0,1,1,0,0,2.0,1,0,5114.0,16.166885910365842,2.0,1.0986122886681096,8.0,2.1972245773362196
286,34.019657,-118.487549,Santa Monica,BlockBeacon,1,2012-01-01,,2012-06-21,2012-06-21,0.4712,0.4712,0.0,0.9178,12,1,2,1,0,0,0,0,web,0,1,0,0,0,0,0,0,0,0,0,1,0,0,0,0,1.0,0,1,-1.0,13.122365377402328,1.0,0.6931471805599453,12.0,2.5649493574615367
287,37.390501,-122.081151,Mountain View,PostPath,1,2003-01-01,,2004-12-07,2007-01-16,1.9342,4.0438,2.0027,10.189,2,2,3,1,0,0,0,0,web,0,1,0,0,0,0,0,0,0,0,0,0,0,1,1,0,2.5,1,1,-1.0,17.00598694946304,2.5,1.252762968495368,2.0,1.0986122886681096
288,37.386778,-121.966277,Santa Clara,Attune Systems,0,1999-01-01,2009-02-12,2006-06-27,2006-11-14,7.4904,7.874,7.0055,7.0055,6,2,1,1,0,0,0,0,hardware,0,0,0,0,0,0,0,0,0,1,1,0,0,1,0,0,4.0,1,0,5802.0,16.705882371415992,4.0,1.6094379124341003,6.0,1.9459101490553132
289,37.779507,-122.39071,San Francisco,TokBox,1,2007-05-01,,2007-12-26,2010-11-15,0.6548,3.5452,3.8438,6.5589,27,3,5,1,0,0,0,0,messaging,0,0,0,0,0,0,0,0,0,1,0,0,1,1,1,0,3.6667,1,1,-1.0,17.073607134447293,3.6667,1.5404521837787817,27.0,3.332204510175204
290,37.391642,-122.09393500000002,Mountain View,Avega Systems,0,2005-01-01,2012-01-01,2007-04-01,2010-01-13,2.2466,5.0356,0.0,0.0,2,2,0,1,0,0,0,0,hardware,0,0,0,0,0,0,0,0,0,1,1,0,0,1,0,0,3.0,1,0,4749.0,16.066802461833923,3.0,1.3862943611198906,2.0,1.0986122886681096
291,39.2328783,-76.8204666,Columbia,Heartscape,1,2000-01-01,2009-10-15,2007-04-24,2007-04-24,7.3151,7.3151,5.0055,5.0055,6,1,1,0,0,0,0,1,biotech,0,0,0,0,0,0,0,1,0,0,0,0,0,1,0,0,1.0,1,1,5557.0,16.64760562992844,1.0,0.6931471805599453,6.0,1.9459101490553132
292,37.419819,-122.09018799999998,Mountain View,PeerMe,0,2004-01-01,2009-02-03,2005-01-01,2005-01-01,1.0027,1.0027,1.1644,3.5699,2,1,2,1,0,0,0,0,games_video,0,0,0,0,0,1,0,0,0,0,0,0,1,0,0,0,3.0,0,0,5811.0,15.424948670398354,3.0,1.3862943611198906,2.0,1.0986122886681096
293,47.657943,-117.421226,SPOKANE,Pacinian,0,2007-04-01,2012-01-01,2008-12-01,2008-12-01,1.6712,1.6712,0.0,0.0,3,1,0,0,0,0,0,1,hardware,0,0,0,0,0,0,0,0,0,1,1,0,0,0,0,0,1.0,0,0,4749.0,12.765691290604371,1.0,0.6931471805599453,3.0,1.3862943611198906
294,42.485691,-71.19861999999998,Burlington,neoSaej,0,2006-01-01,2013-06-01,2007-03-29,2010-12-21,1.2384,4.9726,1.0,1.0,1,5,1,0,0,1,0,0,web,0,1,0,0,0,0,0,0,0,0,1,0,1,0,0,0,2.0,1,0,4232.0,16.390410322440438,2.0,1.0986122886681096,1.0,0.6931471805599453
295,39.78373,-100.445882,Seattle,Kiha Software,0,2008-01-01,2011-08-01,2010-10-28,2010-10-28,2.8247,2.8247,0.0,2.8219,1,1,2,0,0,0,0,1,software,1,0,0,0,0,0,0,0,0,0,0,0,1,0,0,0,1.0,0,0,4902.0,16.811242881518265,1.0,0.6931471805599453,1.0,0.6931471805599453
296,42.372912,-71.118999,Cambridge,Vlingo,1,2006-06-01,,2006-12-01,2009-09-16,0.5014,3.2959,2.0685,6.9973,18,3,4,0,0,1,0,0,mobile,0,0,1,0,0,0,0,0,0,0,1,0,1,1,0,0,2.0,1,1,-1.0,17.0926553286923,2.0,1.0986122886681096,18.0,2.9444389791664403
297,42.432106,-71.453968,Maynard,Tizor Systems,1,2002-01-01,,2005-09-12,2006-02-07,3.6986,4.1041,0.0,0.0,4,2,0,0,0,1,0,0,enterprise,0,0,0,1,0,0,0,0,0,0,0,0,0,1,0,0,5.0,1,1,-1.0,16.52356082573315,5.0,1.791759469228055,4.0,1.6094379124341003
298,39.414219,-77.410927,Frederick,Cerona Networks,0,2002-01-01,2012-01-18,2006-04-21,2006-04-21,4.3041,4.3041,0.0,0.0,0,1,0,0,0,0,0,1,public_relations,0,0,0,0,0,0,0,0,0,1,0,0,1,0,0,0,1.0,0,0,4732.0,14.77102238760702,1.0,0.6931471805599453,0.0,0.0
299,37.54827,-121.988572,Fremont,Oorja Protonics,0,2004-01-01,2012-10-16,2006-05-25,2010-01-11,2.3973,6.0329,0.0,0.0,1,4,0,1,0,0,0,0,cleantech,0,0,0,0,0,0,0,0,0,1,0,0,1,1,0,0,3.5,1,0,4460.0,16.882167216431583,3.5,1.5040773967762742,1.0,0.6931471805599453
300,30.280148,-97.749908,Austin,Hurricane Party,0,2010-05-01,2012-07-01,2010-05-01,2010-05-01,0.0,0.0,0.274,0.863,5,1,2,0,0,0,1,0,mobile,0,0,1,0,0,0,0,0,0,0,0,1,0,0,0,0,1.0,0,0,4567.0,9.90353755128617,1.0,0.6931471805599453,5.0,1.791759469228055
301,37.384239,-122.012475,Sunnyvale,Minekey,0,2005-01-01,2012-08-18,2006-12-01,2007-08-01,1.9151,2.5808,2.0,6.9178,10,2,3,1,0,0,0,0,web,0,1,0,0,0,0,0,0,0,0,0,1,1,0,0,0,1.0,0,0,4519.0,15.096444681204078,1.0,0.6931471805599453,10.0,2.3978952727983707
302,40.728425,-73.999882,New York,Blip,1,2005-05-01,,2006-03-01,2012-07-30,0.8329,7.2521,8.0055,8.4,23,7,4,0,1,0,0,0,games_video,0,0,0,0,0,1,0,0,0,0,0,1,1,1,1,1,2.0,1,1,-1.0,17.122397296785223,2.0,1.0986122886681096,23.0,3.1780538303479458
303,37.779281,-122.419236,San Francisco,Fabkids,1,2012-01-01,,2012-08-02,2012-08-02,0.5863,0.5863,1.0493,1.0493,8,1,1,1,0,0,0,0,ecommerce,0,0,0,0,0,0,1,0,0,0,0,0,1,0,0,0,2.0,0,1,-1.0,14.77102238760702,2.0,1.0986122886681096,8.0,2.1972245773362196
304,37.424298,-122.139809,Palo Alto,CafeBots,0,2010-01-01,2010-10-01,2010-10-21,2010-10-21,0.8027,0.8027,0.0,1.411,5,1,2,1,0,0,0,0,web,0,1,0,0,0,0,0,0,0,0,0,0,1,0,0,0,1.0,1,0,5206.0,15.424948670398354,1.0,0.6931471805599453,5.0,1.791759469228055
305,32.897274,-117.201076,San Diego,Avaak,1,2004-01-01,,2008-10-03,2010-03-22,4.7589,6.2247,3.6685,6.2247,2,2,2,1,0,0,0,0,mobile,0,0,1,0,0,0,0,0,0,0,0,0,1,1,0,0,3.5,1,1,-1.0,16.648723960844016,3.5,1.5040773967762742,2.0,1.0986122886681096
306,43.643967,-70.923675,West Newfield,Newfield Design,0,2008-01-01,2013-06-01,2012-05-14,2012-05-14,4.3699,4.3699,0.0,0.0,0,1,0,0,0,0,0,1,manufacturing,0,0,0,0,0,0,0,0,0,1,0,0,1,0,0,0,3.0,0,0,4232.0,13.403022345492023,3.0,1.3862943611198906,0.0,0.0
307,40.73901,-73.997259,New York,Savored,1,2010-01-01,,2010-01-01,2011-01-10,0.0,1.0247,2.0055,2.7315,12,2,2,0,1,0,0,0,hospitality,0,0,0,0,0,0,0,0,0,1,0,1,1,0,0,0,4.0,1,1,-1.0,15.137266664613225,4.0,1.6094379124341003,12.0,2.5649493574615367
309,40.74731129999999,-73.95491820000002,Long Island City,Songza,1,2007-11-01,,2011-09-19,2013-09-10,3.8849,5.863,2.8356,6.1123,9,2,4,0,1,0,0,0,music,0,0,0,0,0,0,0,0,0,1,1,0,0,0,0,0,8.0,1,1,-1.0,15.717618233614914,8.0,2.1972245773362196,9.0,2.302585092994046
310,37.536402,-122.325129,Redwood City,Bigfoot Networks,1,2006-01-01,,2006-03-06,2009-11-17,0.1753,3.8795,2.0,4.474,12,3,2,1,0,0,0,0,hardware,0,0,0,0,0,0,0,0,0,1,1,0,1,1,0,0,2.3333,1,1,-1.0,16.84805685283375,2.3333,1.2039628042759356,12.0,2.5649493574615367
311,37.786942,-122.401245,San Francisco,Kongregate,1,2006-01-01,,2007-03-01,2013-07-02,1.1616,7.5041,0.0,0.0,5,4,0,1,0,0,0,0,games_video,0,0,0,0,0,1,0,0,0,0,0,0,1,1,1,0,2.0,1,1,-1.0,16.759949589762293,2.0,1.0986122886681096,5.0,1.791759469228055
312,37.778613,-122.395289,San Francisco,Powerset,1,2006-10-01,,2006-05-01,2007-06-01,-0.4192,0.6658,0.0,0.0,20,3,0,1,0,0,0,0,search,0,0,0,0,0,0,0,0,0,1,1,0,1,0,0,0,4.0,1,1,-1.0,16.929025911619092,4.0,1.6094379124341003,20.0,3.044522437723423
313,37.792394,-122.402349,San Francisco,Kiptronic,1,2005-05-01,,2005-11-01,2008-06-05,0.5041,3.0986,2.2384,3.7562,10,3,3,1,0,0,0,0,advertising,0,0,0,0,1,0,0,0,0,0,0,1,1,1,0,0,2.0,1,1,-1.0,15.803385043104912,2.0,1.0986122886681096,10.0,2.3978952727983707
314,39.78373,-100.445882,Seattle,Cozi Group,0,2005-03-03,2013-01-31,2005-12-01,2012-12-27,0.7479,7.8247,4.3151,5.9041,16,7,3,0,0,0,0,1,web,0,1,0,0,0,0,0,0,0,0,1,0,1,1,0,0,1.3333,1,0,4353.0,17.08852678037267,1.3333,0.8472835745708761,16.0,2.833213344056216
315,47.582658,-122.135282,Bellevue,Likewise Software,1,2004-11-01,,2009-04-30,2009-04-30,4.4959,4.4959,0.0,0.0,4,1,0,0,0,0,0,1,software,1,0,0,0,0,0,0,0,0,0,0,0,0,0,1,0,3.0,1,1,-1.0,16.118095750958314,3.0,1.3862943611198906,4.0,1.6094379124341003
316,40.73901,-73.997259,NY,Lifestander,0,2010-09-01,2013-06-01,2010-10-02,2010-10-02,0.0849,0.0849,0.0,0.0,1,1,1,0,1,0,0,0,web,0,1,0,0,0,0,0,0,0,0,0,1,0,0,0,0,2.0,0,0,4232.0,10.34177474101152,2.0,1.0986122886681096,1.0,0.6931471805599453
317,37.451026,-122.18676,Menlo Park,Jaxtr,1,2005-10-01,,2007-07-01,2008-06-23,1.7479,2.7288,1.7479,6.1452,16,3,4,1,0,0,0,0,mobile,0,0,1,0,0,0,0,0,0,0,0,0,1,1,0,0,3.3333,1,1,-1.0,16.88356353960952,3.3333,1.4663293764561487,16.0,2.833213344056216
318,39.540323,-104.857271,Englewood,MX Logic,1,2002-01-01,,2006-11-07,2006-11-07,4.8521,4.8521,6.5863,6.5863,5,1,1,0,0,0,0,1,security,0,0,0,0,0,0,0,0,0,1,0,0,0,0,0,0,5.0,1,1,-1.0,15.201805169084134,5.0,1.791759469228055,5.0,1.791759469228055
319,33.020832,-117.077311,Solana Beach,Metaplace,1,2006-07-01,,2007-01-01,2010-03-15,0.5041,3.7068,2.9863,4.0219,5,3,4,1,0,0,0,0,games_video,0,0,0,0,0,1,0,0,0,0,1,0,1,1,0,0,4.0,1,1,-1.0,16.056220353623207,4.0,1.6094379124341003,5.0,1.791759469228055
320,37.402802,-122.117418,New York,TravelMuse,1,2007-04-16,,2007-05-01,2009-06-01,0.0411,2.1288,1.7562,4.874,9,3,4,0,1,0,0,0,web,0,1,0,0,0,0,0,0,0,0,0,0,1,1,0,0,2.0,1,1,-1.0,15.53827733427679,2.0,1.0986122886681096,9.0,2.302585092994046
321,37.782101,-122.389519,San Francisco,Jambool,1,2006-08-01,,2008-08-01,2009-08-17,2.0027,3.0466,3.5836,5.4767,9,2,2,1,0,0,0,0,finance,0,0,0,0,0,0,0,0,0,1,0,0,1,1,0,0,2.5,1,1,-1.0,15.607270193858982,2.5,1.252762968495368,9.0,2.302585092994046
322,33.7862629,-84.3877936,NW Atlanta,Zipcar,1,2000-10-31,,2002-12-20,2010-12-15,2.137,10.1288,10.4164,12.1863,35,4,3,0,0,0,0,1,transportation,0,0,0,0,0,0,0,0,0,1,1,0,0,1,0,1,2.0,1,1,-1.0,17.92152626332182,2.0,1.0986122886681096,35.0,3.58351893845611
323,37.78227879999999,-122.392978,San Francisco,Hitpost,1,2009-04-01,,2010-01-01,2012-04-26,0.7534,3.0712,3.9178,4.5041,16,3,2,1,0,0,0,0,sports,0,0,0,0,0,0,0,0,0,1,0,1,0,0,0,0,3.6667,1,1,-1.0,14.508658238524095,3.6667,1.5404521837787817,16.0,2.833213344056216
324,37.778551,-122.391686,San Francisco,Home-Account,1,2008-11-01,,2009-04-16,2009-07-16,0.4548,0.7041,0.5808,1.737,5,2,3,1,0,0,0,0,finance,0,0,0,0,0,0,0,0,0,1,1,0,1,0,0,0,5.5,1,1,-1.0,13.815511557963774,5.5,1.8718021769015913,5.0,1.791759469228055
325,40.012771,-75.239234,Bala Cynwyd,PayParade Pictures,0,2007-10-17,2012-01-27,2008-12-01,2009-03-13,1.126,1.4055,0.7918,1.3973,3,2,2,0,0,0,0,1,games_video,0,0,0,0,0,1,0,0,0,0,0,1,1,0,0,0,2.0,1,0,4723.0,12.206077645517674,2.0,1.0986122886681096,3.0,1.3862943611198906
326,37.628328,-122.420814,San Bruno,Planet Metrics,0,2007-01-01,2011-02-07,2008-11-12,2008-11-12,1.8658,1.8658,0.0,1.863,2,1,2,1,0,0,0,0,cleantech,0,0,0,0,0,0,0,0,0,1,0,0,1,0,0,0,2.0,1,0,5077.0,14.648420115681892,2.0,1.0986122886681096,2.0,1.0986122886681096
327,37.7885714,-122.40359850000002,San Francisco,kwiry,0,2006-01-01,2009-04-23,2008-03-20,2008-03-20,2.2164,2.2164,0.7479,3.4164,5,1,4,1,0,0,0,0,mobile,0,0,1,0,0,0,0,0,0,0,0,0,1,0,0,0,1.0,1,0,5732.0,13.815511557963774,1.0,0.6931471805599453,5.0,1.791759469228055
328,37.779624,-122.391236,San Francisco,imeem,1,2003-11-01,,2004-09-01,2009-08-01,0.8356,5.7534,4.9781,7.0301,13,5,3,1,0,0,0,0,music,0,0,0,0,0,0,0,0,0,1,1,1,1,1,0,0,2.4,1,1,-1.0,17.024336087383013,2.4,1.2237754316221157,13.0,2.639057329615259
329,42.055849,-87.694664,Evanston,Amadesa,0,2005-05-15,2013-07-01,2007-12-03,2011-10-05,2.5534,6.3945,6.6356,6.6356,15,2,1,0,0,0,0,1,software,1,0,0,0,0,0,0,0,0,0,0,0,1,1,0,0,2.0,1,0,4202.0,16.36495580701484,2.0,1.0986122886681096,15.0,2.772588722239781
330,37.4305755,-122.0971389,Mountain View,Cast Iron Systems,1,2001-01-01,,2005-03-28,2007-07-29,4.2384,6.5753,7.0027,7.0027,10,2,1,1,0,0,0,0,enterprise,0,0,0,1,0,0,0,0,0,0,0,0,0,0,0,1,4.5,1,1,-1.0,17.233237274364523,4.5,1.7047480922384253,10.0,2.3978952727983707
331,33.133524,-117.254593,Carlsbad,Aptera,0,2003-01-01,2011-12-01,2008-07-25,2011-07-13,5.5671,8.5342,5.6055,7.8384,3,3,2,1,0,0,0,0,automotive,0,0,0,0,0,0,0,0,0,1,1,0,0,0,1,0,1.5,1,0,4780.0,17.40732832678329,1.5,0.9162907318741551,3.0,1.3862943611198906
332,37.779281,-122.419236,San Francisco,RentJuice,1,2008-01-01,,2010-03-04,2011-01-31,2.1726,3.0849,3.0877,4.7753,7,3,3,1,0,0,0,0,real_estate,0,0,0,0,0,0,0,0,0,1,1,0,0,0,0,0,1.6667,1,1,-1.0,15.716689743138032,1.6667,0.980841752933602,7.0,2.0794415416798357
333,32.901049,-117.192656,San Diego,Verari Systems,0,1996-01-01,2010-01-01,2007-06-05,2007-06-05,11.4329,11.4329,0.0,0.0,1,1,0,1,0,0,0,0,hardware,0,0,0,0,0,0,0,0,0,1,0,0,0,0,1,0,5.0,1,0,5479.0,16.811242881518265,5.0,1.791759469228055,1.0,0.6931471805599453
334,37.316653,-122.05074,Cupertino,Parascale,1,2005-01-01,,2008-06-23,2008-06-23,3.4767,3.4767,3.6849,5.6274,8,1,3,1,0,0,0,0,network_hosting,0,0,0,0,0,0,0,0,0,1,0,0,1,0,0,0,2.0,1,1,-1.0,16.246488953677463,2.0,1.0986122886681096,8.0,2.1972245773362196
335,34.090368,-118.393064,West Hollywood,Geni,1,2006-06-01,,2007-01-01,2009-01-19,0.5863,2.6384,3.5425,6.0712,13,3,4,1,0,0,0,0,web,0,1,0,0,0,0,0,0,0,0,0,0,1,1,1,0,1.3333,1,1,-1.0,16.61887099947687,1.3333,0.8472835745708761,13.0,2.639057329615259
336,37.794891,-122.397901,San Franciso,Zentact,0,2008-09-01,2012-01-01,2008-09-01,2008-09-01,0.0,0.0,3.411,3.411,3,1,1,1,0,0,0,0,network_hosting,0,0,0,0,0,0,0,0,0,1,0,1,0,0,0,0,3.0,0,0,4749.0,12.429220196836383,3.0,1.3862943611198906,3.0,1.3862943611198906
337,40.70438220000001,-73.98657170000001,New York,Outside.in,1,2006-08-01,,2007-02-01,2009-12-08,0.5041,3.3562,3.4219,7.2274,9,5,5,0,1,0,0,0,web,0,1,0,0,0,0,0,0,0,0,0,1,1,1,0,0,5.8,1,1,-1.0,16.48273883399067,5.8,1.916922612182061,9.0,2.302585092994046
338,40.756054,-73.986951,New York,Salesforce Buddy Media,1,2007-09-01,,2007-09-01,2011-08-15,0.0,3.9562,4.7616,5.1507,24,5,3,0,1,0,0,0,enterprise,0,0,0,1,0,0,0,0,0,0,1,0,1,1,1,1,3.8,1,1,-1.0,18.31532023940565,3.8,1.5686159179138452,24.0,3.2188758248682006
339,37.797435,-122.403175,San Francisco,Vizu Corporation,1,2005-02-14,,2006-02-20,2012-04-09,1.0164,7.1534,5.6959,8.1781,10,4,2,1,0,0,0,0,advertising,0,0,0,0,1,0,0,0,0,0,0,0,1,1,0,0,4.0,1,1,-1.0,16.386212644397094,4.0,1.6094379124341003,10.0,2.3978952727983707
340,37.388077,-122.08316,Mountain View,Zing Systems,1,2007-06-01,,2006-12-01,2007-01-01,-0.4986,-0.4137,-0.4986,5.7699,10,2,4,1,0,0,0,0,games_video,0,0,0,0,0,1,0,0,0,0,0,0,1,0,1,0,2.5,1,1,-1.0,17.073607134447293,2.5,1.252762968495368,10.0,2.3978952727983707
341,42.504817,-71.195611,Burlington,DynamicOps,1,2008-01-01,,2011-02-28,2011-09-09,3.1616,3.6904,3.0027,4.5041,6,2,2,0,0,1,0,0,enterprise,0,0,0,1,0,0,0,0,0,0,0,0,0,1,0,0,2.0,1,1,-1.0,16.60667572712668,2.0,1.0986122886681096,6.0,1.9459101490553132
342,30.409765000000004,-97.75101,Austin,Movero Technology,1,2003-01-01,2013-06-01,2007-06-14,2010-03-23,4.4521,7.2274,7.0055,7.0055,5,2,1,0,0,0,1,0,enterprise,0,0,0,1,0,0,0,0,0,0,1,0,1,0,0,0,2.0,0,1,4232.0,15.605988706651662,2.0,1.0986122886681096,5.0,1.791759469228055
343,32.962655,-117.189656,San Diego,Elevation Pharmaceuticals,1,2007-01-01,,2010-01-21,2012-01-04,3.0575,5.011,0.0,0.0,2,4,0,1,0,0,0,0,biotech,0,0,0,0,0,0,0,1,0,0,1,0,1,1,0,0,4.3333,1,1,-1.0,18.308631262515107,4.3333,1.6739701835521403,2.0,1.0986122886681096
344,37.4233698,-122.09868590000002,Palo Alto,Punch Entertainment,0,2005-05-10,2012-04-16,2006-02-27,2006-02-27,0.8027,0.8027,5.3151,5.3151,4,1,1,1,0,0,0,0,software,1,0,0,0,0,0,0,0,0,0,0,0,1,0,0,0,1.0,0,0,4643.0,13.997832948091215,1.0,0.6931471805599453,4.0,1.6094379124341003
345,40.729839,-73.991781,New York,Stickybits,0,2009-01-01,2012-08-01,2010-03-09,2010-05-19,1.1836,1.3781,1.3288,3.1096,7,2,2,0,1,0,0,0,web,0,1,0,0,0,0,0,0,0,0,0,1,1,0,0,0,2.5,1,0,4536.0,14.45736497045232,2.5,1.252762968495368,7.0,2.0794415416798357
346,37.779281,-122.419236,San Francisco,Ecast,0,1999-01-01,2012-02-12,2008-05-07,2011-05-26,9.3534,12.4055,7.0055,11.3836,9,3,2,1,0,0,0,0,games_video,0,0,0,0,0,1,0,0,0,0,1,0,0,0,0,1,4.5,1,0,4707.0,17.226658303482896,4.5,1.7047480922384253,9.0,2.302585092994046
347,40.730646,-73.986614,New York,lifeIO,0,2006-08-29,2012-03-03,2008-08-29,2008-08-29,2.0027,2.0027,0.0,0.0,4,1,0,0,1,0,0,0,web,0,1,0,0,0,0,0,0,0,0,0,1,0,0,0,0,5.0,0,0,4687.0,13.122365377402328,5.0,1.791759469228055,4.0,1.6094379124341003
348,34.049767,-118.459387,Santa Monica,EdgeCast Networks,1,2006-08-01,,2006-08-01,2013-07-18,0.0,6.9671,6.4247,7.3562,19,5,2,1,0,0,0,0,network_hosting,0,0,0,0,0,0,0,0,0,1,0,1,1,1,1,1,1.75,1,1,-1.0,18.119575664681957,1.75,1.0116009116784799,19.0,2.995732273553991
349,32.945353999999995,-96.708874,Richardson,Sirific Wireless,1,2000-01-01,,2007-02-12,2007-02-12,7.1205,7.1205,0.0,0.0,3,1,0,0,0,0,1,0,semiconductor,0,0,0,0,0,0,0,0,0,1,0,0,0,0,1,0,7.0,1,1,-1.0,16.749367480991666,7.0,2.0794415416798357,3.0,1.3862943611198906
350,42.8138649,-86.02384599999998,Zeeland,Revetto,0,2009-01-01,2009-05-18,2009-05-01,2009-05-01,0.3288,0.3288,-0.4192,-0.4192,3,1,1,0,0,0,0,1,web,0,1,0,0,0,0,0,0,0,0,0,1,0,0,0,0,1.0,0,0,5707.0,9.90353755128617,1.0,0.6931471805599453,3.0,1.3862943611198906
351,38.969532,-77.385948,Herndon,ZoomSafer,1,2009-01-01,,2009-03-01,2011-03-07,0.1616,2.1781,1.5096,2.1781,3,4,2,0,0,0,0,1,mobile,0,0,1,0,0,0,0,0,0,0,0,1,1,1,0,0,1.5,0,1,-1.0,15.024471202308668,1.5,0.9162907318741551,3.0,1.3862943611198906
352,40.944543,-74.075419,Paramus,AkaRx,1,2005-01-01,,2010-01-07,2010-01-07,5.0192,5.0192,0.0,0.0,1,1,0,0,0,0,0,1,biotech,0,0,0,0,0,0,0,1,0,0,1,0,0,0,0,0,2.0,1,1,-1.0,17.077445910607096,2.0,1.0986122886681096,1.0,0.6931471805599453
353,40.441694,-79.990086,Pittsburgh,Lama Lab,0,2009-01-01,2013-06-01,2010-05-31,2011-07-08,1.411,2.5151,0.0,0.0,0,2,0,0,0,0,0,1,enterprise,0,0,0,1,0,0,0,0,0,0,1,0,0,0,0,0,1.0,1,0,4232.0,14.008662421355451,1.0,0.6931471805599453,0.0,0.0
354,37.425359,-122.1389633,Palo Alto,Buysight,1,2008-01-01,,2008-11-04,2012-03-21,0.8438,4.2219,0.7616,4.9288,18,3,3,1,0,0,0,0,advertising,0,0,0,0,1,0,0,0,0,0,0,0,1,1,0,0,3.6667,1,1,-1.0,16.9948136493273,3.6667,1.5404521837787817,18.0,2.9444389791664403
355,37.764169,-122.402021,San Francisco,TripIt,1,2006-10-01,,2007-04-01,2010-03-04,0.4986,3.4247,1.9863,5.9616,14,3,5,1,0,0,0,0,travel,0,0,0,0,0,0,0,0,0,1,0,1,0,1,1,0,1.6667,1,1,-1.0,16.388122864507256,1.6667,0.980841752933602,14.0,2.70805020110221
356,40.757929,-73.985506,New York,Pinch Media,1,2008-04-01,,2008-05-01,2010-01-06,0.0822,1.7671,0.3014,5.0082,6,3,5,0,1,0,0,0,software,1,0,0,0,0,0,0,0,0,0,1,1,0,0,0,0,3.5,1,1,-1.0,13.235695634133526,3.5,1.5040773967762742,6.0,1.9459101490553132
357,44.9773,-93.265469,Minneapolis,Enstratius,1,2009-01-01,,2011-11-07,2011-11-07,2.8493,2.8493,2.9068,4.1918,7,1,3,0,0,0,0,1,enterprise,0,0,0,1,0,0,0,0,0,0,0,0,1,0,0,0,2.0,1,1,-1.0,15.068273812173887,2.0,1.0986122886681096,7.0,2.0794415416798357
358,42.368633,-71.075305,Boston,Jumptap,1,2005-01-01,,2005-03-01,2012-07-02,0.1616,7.5041,7.0521,8.6192,45,7,3,0,0,1,0,0,mobile,0,0,1,0,0,0,0,0,0,0,1,0,1,1,1,1,4.5,1,1,-1.0,18.61542482897533,4.5,1.7047480922384253,35.0,3.58351893845611
359,37.40909600000001,-121.94319099999998,San Jose,WiChorus,1,2005-01-01,,2005-12-22,2008-11-04,0.9726,3.8438,2.0,2.0,18,4,1,1,0,0,0,0,mobile,0,0,1,0,0,0,0,0,0,0,1,0,1,1,1,0,2.5,1,1,-1.0,17.565014657424058,2.5,1.252762968495368,18.0,2.9444389791664403
360,35.996653,-78.90180500000002,Durham,Hatteras Networks,1,2000-01-01,,2005-06-08,2006-06-01,5.4384,6.4192,6.0055,6.0055,26,2,1,0,0,0,0,1,software,1,0,0,0,0,0,0,0,0,0,1,0,0,0,0,1,3.5,1,1,-1.0,17.399029524198163,3.5,1.5040773967762742,26.0,3.295836866004329
361,37.793949,-122.398062,San Francisco,Focus,0,2005-08-01,2012-09-15,2008-03-06,2008-03-06,2.5973,2.5973,2.9178,5.4822,7,1,2,1,0,0,0,0,enterprise,0,0,0,1,0,0,0,0,0,0,0,0,0,0,1,0,3.0,1,0,4491.0,16.314484547132974,3.0,1.3862943611198906,7.0,2.0794415416798357
362,40.730646,-73.986614,New York,easy2comply (Dynasec),1,2002-01-01,,2007-10-02,2007-10-02,5.7534,5.7534,8.0055,9.8356,4,1,2,0,1,0,0,0,software,1,0,0,0,0,0,0,0,0,0,0,0,1,0,0,0,3.0,1,1,-1.0,13.815511557963774,3.0,1.3862943611198906,4.0,1.6094379124341003
363,38.88521,-76.998641,San Francisco,Socialize,1,2008-07-01,,2011-11-01,2012-06-07,3.337,3.937,-2.4986,4.7205,5,3,4,1,0,0,0,0,mobile,0,0,1,0,0,0,0,0,0,0,0,1,0,0,0,0,1.0,0,1,-1.0,14.414347608503377,1.0,0.6931471805599453,5.0,1.791759469228055
364,30.6324797,-86.9843446,Kirkland,Clearwire,1,2003-10-01,,2008-05-06,2013-02-27,4.6,9.4164,5.2575,9.7753,19,4,2,0,0,0,0,1,mobile,0,0,1,0,0,0,0,0,0,0,0,0,0,0,0,0,4.25,1,1,-1.0,18.718248953612786,4.25,1.6582280766035324,19.0,2.995732273553991
365,32.960431,-96.83026,Addison,CREDANT Technologies,1,2001-01-01,,2007-12-20,2007-12-20,6.9699,6.9699,0.0849,11.9699,6,1,2,0,0,0,1,0,security,0,0,0,0,0,0,0,0,0,1,0,0,0,0,1,0,5.0,1,1,-1.0,15.424948670398354,5.0,1.791759469228055,6.0,1.9459101490553132
366,40.750519,-73.993494,New York,Exclusively.in,1,2010-01-01,,2010-11-03,2011-05-29,0.8384,1.4055,1.6356,1.6356,4,2,1,0,1,0,0,0,fashion,0,0,0,0,0,0,0,0,0,1,0,0,1,1,0,0,2.5,1,1,-1.0,16.749367480991666,2.5,1.252762968495368,4.0,1.6094379124341003
367,37.406914,-122.09037,Mountain View,Avidia,1,2003-01-01,,2005-05-06,2006-05-09,2.3452,3.3534,0.0,0.0,3,2,0,1,0,0,0,0,advertising,0,0,0,0,1,0,0,0,0,0,0,0,0,1,1,0,4.5,1,1,-1.0,18.096334700960252,4.5,1.7047480922384253,3.0,1.3862943611198906
368,33.685697,-117.825982,Irvine,PayDivvy,1,2009-03-06,,2009-01-15,2012-04-27,-0.1369999999999999,3.1452,-2.0932,4.4082,3,3,4,1,0,0,0,0,social,0,0,0,0,0,0,0,0,0,1,0,1,0,0,0,0,1.0,0,1,-1.0,14.085538458535822,1.0,0.6931471805599453,3.0,1.3862943611198906
369,42.479262,-71.152277,Woburn,Octavian,0,2003-01-01,2011-02-01,2005-06-01,2007-10-10,2.4164,4.7753,4.0027,4.0027,2,2,1,0,0,1,0,0,software,1,0,0,0,0,0,0,0,0,0,0,0,1,1,0,0,2.5,1,0,5083.0,16.52356082573315,2.5,1.252762968495368,2.0,1.0986122886681096
370,40.75166110000001,-73.9843328,New York,KickApps,1,2004-03-01,,2006-06-01,2008-11-25,2.2521,4.7397,5.3370000000000015,7.274,22,3,5,0,1,0,0,0,enterprise,0,0,0,1,0,0,0,0,0,0,0,0,1,1,1,0,3.0,1,1,-1.0,17.47927192773757,3.0,1.3862943611198906,22.0,3.1354942159291497
371,42.504817,-71.195611,Burlington,Airwide Solutions,1,2004-01-01,,2006-01-25,2006-01-25,2.0685,2.0685,-1.9151,-1.9151,3,1,1,0,0,1,0,0,software,1,0,0,0,0,0,0,0,0,0,0,0,0,0,0,1,5.0,1,1,-1.0,17.034386422832473,5.0,1.791759469228055,3.0,1.3862943611198906
372,42.360253,-71.058291,Boston,Localocracy,1,2009-01-01,,2009-05-01,2011-02-04,0.3288,2.0932,1.3288,2.7534,4,3,2,0,0,1,0,0,web,0,1,0,0,0,0,0,0,0,0,0,1,0,0,0,0,1.0,0,1,-1.0,12.058158312538197,1.0,0.6931471805599453,4.0,1.6094379124341003
373,40.730646,-73.986614,New York City,Pixable,1,2009-03-12,,2010-11-10,2011-04-22,1.6658,2.1123,2.3041,3.5507,23,2,2,0,1,0,0,0,social,0,0,0,0,0,0,0,0,0,1,0,0,1,1,0,0,1.0,1,1,-1.0,15.623799493077952,1.0,0.6931471805599453,23.0,3.1780538303479458
374,37.862592,-122.493561,Larkspur,mFoundry,1,2004-01-01,,2006-03-21,2011-12-05,2.2192,7.9315,1.6685,9.0904,7,3,5,1,0,0,0,0,mobile,0,0,1,0,0,0,0,0,0,0,1,0,0,1,1,0,4.0,1,1,-1.0,17.511862051730805,4.0,1.6094379124341003,7.0,2.0794415416798357
375,34.098242,-118.35697,Los Angeles,Bevvy,0,2011-01-08,2012-01-01,2011-05-20,2011-05-20,0.3616,0.3616,0.3753,0.5425,9,1,3,1,0,0,0,0,ecommerce,0,0,0,0,0,0,1,0,0,0,0,1,0,0,0,0,1.0,0,0,4749.0,11.51293546492023,1.0,0.6931471805599453,9.0,2.302585092994046
376,47.6399006,-122.1914274,Seattle,Livemocha,1,2007-09-01,,2008-01-01,2013-02-25,0.3342,5.4904,2.7507,5.589,14,5,2,0,0,0,0,1,education,0,0,0,0,0,0,0,0,0,1,1,0,1,1,1,0,1.5,1,1,-1.0,16.780267975645856,1.5,0.9162907318741551,14.0,2.70805020110221
377,37.626166,-122.411025,San Bruno,IronPort Systems,1,2000-01-01,,2002-06-25,2004-10-25,2.4822,4.8192,5.5863,11.9452,21,2,3,1,0,0,0,0,hardware,0,0,0,0,0,0,0,0,0,1,0,0,0,1,0,1,4.0,1,1,-1.0,17.93454774903691,4.0,1.6094379124341003,21.0,3.091042453358316
378,37.779281,-122.419236,San Francisco,Crowdcast,1,2007-01-01,,2010-06-10,2010-06-10,3.4411,3.4411,4.0027,5.7178,6,1,2,1,0,0,0,0,software,1,0,0,0,0,0,0,0,0,0,0,0,1,0,0,0,2.0,1,1,-1.0,15.607270193858982,2.0,1.0986122886681096,6.0,1.9459101490553132
379,42.360253,-71.058291,Boston,Where,1,2004-01-01,,2003-12-31,2009-01-01,-0.0027,5.0055,4.9507,7.3726,23,4,6,0,0,1,0,0,mobile,0,0,1,0,0,0,0,0,0,0,0,0,1,1,1,0,2.5,1,1,-1.0,16.765198945372877,2.5,1.252762968495368,23.0,3.1780538303479458
380,40.756054,-73.986951,New York,Pictela,1,2008-10-17,,2009-01-06,2010-11-06,0.2219,2.0548,0.0411,3.9178,8,4,3,0,1,0,0,0,advertising,0,0,0,0,1,0,0,0,0,0,1,0,1,0,0,0,1.5,1,1,-1.0,15.068272955030908,1.5,0.9162907318741551,8.0,2.1972245773362196
381,37.502742,-122.211281,Redwood City,Grouply,1,2006-03-01,2012-01-01,2007-06-01,2008-01-14,1.2521,1.874,4.7178,5.0959,13,3,2,1,0,0,0,0,network_hosting,0,0,0,0,0,0,0,0,0,1,0,1,1,0,0,0,3.6667,1,1,4749.0,14.77102238760702,3.6667,1.5404521837787817,13.0,2.639057329615259
382,37.779281,-122.419236,San Francisco,Storify,1,2009-12-11,,2009-07-01,2011-02-03,-0.4466,1.1479,3.0603,3.7479,14,3,2,1,0,0,0,0,web,0,1,0,0,0,0,0,0,0,0,0,1,1,0,0,0,1.3333,1,1,-1.0,14.520092610465134,1.3333,0.8472835745708761,14.0,2.70805020110221
383,33.685697,-117.825982,Irvine,Axiom Microdevices,1,2002-01-01,,2007-02-08,2007-02-08,5.1068,5.1068,0.0,0.0,3,1,0,1,0,0,0,0,semiconductor,0,0,0,0,0,0,0,0,0,1,1,0,0,0,0,0,4.0,1,1,-1.0,17.034386422832473,4.0,1.6094379124341003,3.0,1.3862943611198906
384,34.019657,-118.487549,Santa Monica,ShoeDazzle,1,2009-03-01,,2009-11-19,2012-10-03,0.7205,3.5945,2.8384,4.0192,17,4,4,1,0,0,0,0,fashion,0,0,0,0,0,0,0,0,0,1,1,0,1,1,1,0,2.3333,1,1,-1.0,18.005165315142214,2.3333,1.2039628042759356,17.0,2.8903717578961645
385,40.74929,-73.981328,New York,LiftDNA,1,2009-09-01,,2011-02-01,2011-02-11,1.4192,1.4466,1.663,1.663,5,2,1,0,1,0,0,0,advertising,0,0,0,0,1,0,0,0,0,0,0,1,0,0,0,0,3.5,0,1,-1.0,13.815511557963774,3.5,1.5040773967762742,5.0,1.791759469228055
386,37.424298,-122.139809,Palo Alto,Onavo,1,2010-01-01,,2011-05-01,2012-01-24,1.3288,2.063,3.2493,3.7836,11,2,2,1,0,0,0,0,mobile,0,0,1,0,0,0,0,0,0,0,0,0,1,1,0,0,3.0,1,1,-1.0,16.380459992348886,3.0,1.3862943611198906,11.0,2.4849066497880004
387,42.37564,-71.2358,Waltham,Pyxis Mobile,0,1998-01-01,2012-08-01,2005-09-09,2012-01-10,7.6932,14.0329,12.5041,14.0329,3,3,2,0,0,1,0,0,software,1,0,0,0,0,0,0,0,0,0,1,0,1,1,0,0,2.3333,1,0,4536.0,16.99979497947072,2.3333,1.2039628042759356,3.0,1.3862943611198906
388,37.354469,-121.990433,Santa Clara,Link_A_Media Devices,0,2004-01-01,2013-01-01,2009-11-02,2012-03-20,5.8411,8.2219,0.0,0.0,4,3,0,1,0,0,0,0,semiconductor,0,0,0,0,0,0,0,0,0,1,1,0,0,0,1,1,3.3333,1,0,4383.0,17.670296301738183,3.3333,1.4663293764561487,4.0,1.6094379124341003
389,42.37564,-71.2358,Waltham,Guardium,1,2002-01-01,,2005-08-12,2006-05-17,3.6137,4.3753,0.0,7.9178,1,2,2,0,0,1,0,0,search,0,0,0,0,0,0,0,0,0,1,0,0,0,0,1,1,4.5,1,1,-1.0,16.283610174181653,4.5,1.7047480922384253,1.0,0.6931471805599453
390,35.96544,-115.106579,Henderson,Trooval,0,2008-09-01,2011-02-01,2010-04-07,2010-11-05,1.5973,2.1781,0.0822,0.0822,2,2,1,0,0,0,0,1,analytics,0,0,0,0,0,0,0,0,0,1,1,0,0,0,0,0,1.0,1,0,5083.0,14.685749812041585,1.0,0.6931471805599453,2.0,1.0986122886681096
391,42.346743,-71.07663199999998,Boston,Compete,1,2000-01-01,,2000-11-01,2007-08-01,0.8356,7.5863,11.589,13.5863,35,4,5,0,0,1,0,0,consulting,0,0,0,0,0,0,0,0,1,0,1,0,1,1,1,0,2.5,1,1,-1.0,17.312018149733785,2.5,1.252762968495368,35.0,3.58351893845611
392,38.872668,-77.367981,McLean,Rollstream,1,2005-01-01,,2007-09-03,2008-11-18,2.6712,3.8822,4.0027,7.3205,4,2,3,0,0,0,0,1,software,1,0,0,0,0,0,0,0,0,0,0,0,1,1,0,0,1.5,1,1,-1.0,15.830413711839864,1.5,0.9162907318741551,4.0,1.6094379124341003
393,37.404788,-121.940842,San Jose,NeoGuide Systems,1,2000-01-01,,2006-09-29,2006-09-29,6.7479,6.7479,4.0027,4.0027,3,1,1,1,0,0,0,0,biotech,0,0,0,0,0,0,0,1,0,0,0,0,0,0,1,0,1.0,1,1,-1.0,17.034386422832473,1.0,0.6931471805599453,3.0,1.3862943611198906
394,37.386778,-121.966277,Santa Clara,Accept Software,1,2002-01-01,,2005-09-16,2010-12-14,3.7096,8.9562,4.0027,4.0027,7,4,1,1,0,0,0,0,software,1,0,0,0,0,0,0,0,0,0,1,0,1,1,1,0,2.0,1,1,-1.0,17.046512602148198,2.0,1.0986122886681096,7.0,2.0794415416798357
395,37.444531,-122.163352,Palo Alto,Milo,1,2008-01-01,,2008-11-01,2009-11-24,0.8356,1.8986,2.3014,3.8356,21,2,3,1,0,0,0,0,web,0,1,0,0,0,0,0,0,0,0,0,1,1,0,0,0,12.5,1,1,-1.0,15.414898336565054,9.0,2.302585092994046,21.0,3.091042453358316
396,37.37968400000001,-121.97514,Santa Clara,Mimosa Systems,1,2003-08-29,,2005-12-05,2010-01-12,2.2712,6.3781,0.0,0.0,8,6,0,1,0,0,0,0,software,1,0,0,0,0,0,0,0,0,0,1,0,0,1,1,1,5.0,1,1,-1.0,17.801095816668678,5.0,1.791759469228055,8.0,2.1972245773362196
397,37.809782,-122.417306,New York,Surphace,1,2005-06-01,,2005-04-01,2006-05-01,-0.1671,0.9151,2.674,8.3836,15,2,4,0,1,0,0,0,web,0,1,0,0,0,0,0,0,0,0,0,0,1,1,0,0,5.5,1,1,-1.0,15.068273812173887,5.5,1.8718021769015913,15.0,2.772588722239781
398,37.388869,-122.072353,Mountain View,Cloudmeter,1,2007-04-01,,2012-04-27,2012-04-27,5.0767,5.0767,4.7562,6.0466,7,1,2,1,0,0,0,0,enterprise,0,0,0,1,0,0,0,0,0,0,0,0,1,0,0,0,1.0,0,1,-1.0,15.424948670398354,1.0,0.6931471805599453,7.0,2.0794415416798357
